{
"type": "FeatureCollection",
"features": [
{ "type": "Feature", "properties": { "ID": "S00000", "Name": "N.D.", "RegionID": "", "Region": "N.D.", "Type": null, "Latitude": null, "Longitude": null, "cityName": null }, "geometry": null },
{ "type": "Feature", "properties": { "ID": "S00001", "Name": "VILLADOSSOLA", "RegionID": "3", "Region": "Piemonte", "Type": 3.0, "Latitude": 46.064151, "Longitude": 8.264675, "cityName": "A" }, "geometry": { "type": "Point", "coordinates": [ 8.264675, 46.064151 ] } },
{ "type": "Feature", "properties": { "ID": "S00002", "Name": "PALLANZENO", "RegionID": "3", "Region": "Piemonte", "Type": 3.0, "Latitude": 46.043533, "Longitude": 8.260645, "cityName": "A" }, "geometry": { "type": "Point", "coordinates": [ 8.260645, 46.043533 ] } },
{ "type": "Feature", "properties": { "ID": "S00003", "Name": "PIEDIMULERA", "RegionID": "3", "Region": "Piemonte", "Type": 3.0, "Latitude": 46.024348, "Longitude": 8.261237, "cityName": "A" }, "geometry": { "type": "Point", "coordinates": [ 8.261237, 46.024348 ] } },
{ "type": "Feature", "properties": { "ID": "S00004", "Name": "PIEVE VERGONTE", "RegionID": "3", "Region": "Piemonte", "Type": 3.0, "Latitude": 46.009783, "Longitude": 8.276298, "cityName": "A" }, "geometry": { "type": "Point", "coordinates": [ 8.276298, 46.009783 ] } },
{ "type": "Feature", "properties": { "ID": "S00006", "Name": "ORNAVASSO", "RegionID": "3", "Region": "Piemonte", "Type": 3.0, "Latitude": 45.970296, "Longitude": 8.415892, "cityName": "A" }, "geometry": { "type": "Point", "coordinates": [ 8.415892, 45.970296 ] } },
{ "type": "Feature", "properties": { "ID": "S00007", "Name": "GRAVELLONA TOCE", "RegionID": "3", "Region": "Piemonte", "Type": 3.0, "Latitude": 45.934051, "Longitude": 8.428346, "cityName": "A" }, "geometry": { "type": "Point", "coordinates": [ 8.428346, 45.934051 ] } },
{ "type": "Feature", "properties": { "ID": "S00008", "Name": "OMEGNA CRUSINALLO", "RegionID": "3", "Region": "Piemonte", "Type": 3.0, "Latitude": 45.898138, "Longitude": 8.413929, "cityName": "A" }, "geometry": { "type": "Point", "coordinates": [ 8.413929, 45.898138 ] } },
{ "type": "Feature", "properties": { "ID": "S00010", "Name": "OMEGNA", "RegionID": "3", "Region": "Piemonte", "Type": 3.0, "Latitude": 45.87179, "Longitude": 8.413291, "cityName": "A" }, "geometry": { "type": "Point", "coordinates": [ 8.413291, 45.87179 ] } },
{ "type": "Feature", "properties": { "ID": "S00011", "Name": "PETTENASCO", "RegionID": "3", "Region": "Piemonte", "Type": 3.0, "Latitude": 45.820498, "Longitude": 8.406802, "cityName": "A" }, "geometry": { "type": "Point", "coordinates": [ 8.406802, 45.820498 ] } },
{ "type": "Feature", "properties": { "ID": "S00012", "Name": "ORTA MIASINO", "RegionID": "3", "Region": "Piemonte", "Type": 3.0, "Latitude": 45.795865, "Longitude": 8.421217, "cityName": "A" }, "geometry": { "type": "Point", "coordinates": [ 8.421217, 45.795865 ] } },
{ "type": "Feature", "properties": { "ID": "S00014", "Name": "BOLZANO NOVARESE", "RegionID": "3", "Region": "Piemonte", "Type": 3.0, "Latitude": 45.759357, "Longitude": 8.440754, "cityName": "A" }, "geometry": { "type": "Point", "coordinates": [ 8.440754, 45.759357 ] } },
{ "type": "Feature", "properties": { "ID": "S00015", "Name": "GOZZANO", "RegionID": "3", "Region": "Piemonte", "Type": 3.0, "Latitude": 45.741039, "Longitude": 8.438726, "cityName": "A" }, "geometry": { "type": "Point", "coordinates": [ 8.438726, 45.741039 ] } },
{ "type": "Feature", "properties": { "ID": "S00016", "Name": "BORGOMANERO", "RegionID": "3", "Region": "Piemonte", "Type": 3.0, "Latitude": 45.701054, "Longitude": 8.468093, "cityName": "Borgomanero" }, "geometry": { "type": "Point", "coordinates": [ 8.468093, 45.701054 ] } },
{ "type": "Feature", "properties": { "ID": "S00017", "Name": "CRESSA FONTANETO", "RegionID": "3", "Region": "Piemonte", "Type": 3.0, "Latitude": 45.646331, "Longitude": 8.498435, "cityName": "A" }, "geometry": { "type": "Point", "coordinates": [ 8.498435, 45.646331 ] } },
{ "type": "Feature", "properties": { "ID": "S00018", "Name": "SUNO", "RegionID": "3", "Region": "Piemonte", "Type": 3.0, "Latitude": 45.620435, "Longitude": 8.519344, "cityName": "A" }, "geometry": { "type": "Point", "coordinates": [ 8.519344, 45.620435 ] } },
{ "type": "Feature", "properties": { "ID": "S00019", "Name": "MOMO", "RegionID": "3", "Region": "Piemonte", "Type": 3.0, "Latitude": 45.574646, "Longitude": 8.55689, "cityName": "A" }, "geometry": { "type": "Point", "coordinates": [ 8.55689, 45.574646 ] } },
{ "type": "Feature", "properties": { "ID": "S00020", "Name": "CALTIGNAGA", "RegionID": "3", "Region": "Piemonte", "Type": 3.0, "Latitude": 45.519167, "Longitude": 8.591602, "cityName": "A" }, "geometry": { "type": "Point", "coordinates": [ 8.591602, 45.519167 ] } },
{ "type": "Feature", "properties": { "ID": "S00021", "Name": "VIGNALE", "RegionID": "3", "Region": "Piemonte", "Type": 3.0, "Latitude": 45.478989, "Longitude": 8.613132, "cityName": "Vignale" }, "geometry": { "type": "Point", "coordinates": [ 8.613132, 45.478989 ] } },
{ "type": "Feature", "properties": { "ID": "S00022", "Name": "VAPRIO D`AGOGNA", "RegionID": "3", "Region": "Piemonte", "Type": 3.0, "Latitude": 45.599085, "Longitude": 8.536862, "cityName": "A" }, "geometry": { "type": "Point", "coordinates": [ 8.536862, 45.599085 ] } },
{ "type": "Feature", "properties": { "ID": "S00023", "Name": "NOVARA FERROVIA NORD MILANO", "RegionID": "", "Region": "N.D.", "Type": null, "Latitude": null, "Longitude": null, "cityName": null }, "geometry": null },
{ "type": "Feature", "properties": { "ID": "S00030", "Name": "GARBAGNA", "RegionID": "3", "Region": "Piemonte", "Type": 3.0, "Latitude": 45.385552, "Longitude": 8.66627, "cityName": "A" }, "geometry": { "type": "Point", "coordinates": [ 8.66627, 45.385552 ] } },
{ "type": "Feature", "properties": { "ID": "S00031", "Name": "VESPOLATE", "RegionID": "3", "Region": "Piemonte", "Type": 3.0, "Latitude": 45.351517, "Longitude": 8.671947, "cityName": "A" }, "geometry": { "type": "Point", "coordinates": [ 8.671947, 45.351517 ] } },
{ "type": "Feature", "properties": { "ID": "S00032", "Name": "BORGO LAVEZZARO", "RegionID": "3", "Region": "Piemonte", "Type": 3.0, "Latitude": 45.318783, "Longitude": 8.703242, "cityName": "A" }, "geometry": { "type": "Point", "coordinates": [ 8.703242, 45.318783 ] } },
{ "type": "Feature", "properties": { "ID": "S00033", "Name": "ALBONESE", "RegionID": "1", "Region": "Lombardia", "Type": 3.0, "Latitude": 45.297785, "Longitude": 8.714601, "cityName": "A" }, "geometry": { "type": "Point", "coordinates": [ 8.714601, 45.297785 ] } },
{ "type": "Feature", "properties": { "ID": "S00034", "Name": "MORTARA", "RegionID": "1", "Region": "Lombardia", "Type": 3.0, "Latitude": 45.252171, "Longitude": 8.731639, "cityName": "Mortara" }, "geometry": { "type": "Point", "coordinates": [ 8.731639, 45.252171 ] } },
{ "type": "Feature", "properties": { "ID": "S00035", "Name": "TORINO PORTA SUSA", "RegionID": "3", "Region": "Piemonte", "Type": 3.0, "Latitude": 45.075906, "Longitude": 7.667673, "cityName": "A" }, "geometry": { "type": "Point", "coordinates": [ 7.667673, 45.075906 ] } },
{ "type": "Feature", "properties": { "ID": "S00036", "Name": "OLEVANO", "RegionID": "1", "Region": "Lombardia", "Type": 3.0, "Latitude": 45.212119, "Longitude": 8.71182, "cityName": "A" }, "geometry": { "type": "Point", "coordinates": [ 8.71182, 45.212119 ] } },
{ "type": "Feature", "properties": { "ID": "S00037", "Name": "VALLE LOMELLINA", "RegionID": "1", "Region": "Lombardia", "Type": 3.0, "Latitude": 45.150588, "Longitude": 8.685874, "cityName": "A" }, "geometry": { "type": "Point", "coordinates": [ 8.685874, 45.150588 ] } },
{ "type": "Feature", "properties": { "ID": "S00038", "Name": "SARTIRANA", "RegionID": "1", "Region": "Lombardia", "Type": 3.0, "Latitude": 45.111728, "Longitude": 8.67012, "cityName": "A" }, "geometry": { "type": "Point", "coordinates": [ 8.67012, 45.111728 ] } },
{ "type": "Feature", "properties": { "ID": "S00039", "Name": "TORREBERETTI", "RegionID": "1", "Region": "Lombardia", "Type": 3.0, "Latitude": 45.060533, "Longitude": 8.660431, "cityName": "Torreberetti" }, "geometry": { "type": "Point", "coordinates": [ 8.660431, 45.060533 ] } },
{ "type": "Feature", "properties": { "ID": "S00041", "Name": "VALENZA", "RegionID": "3", "Region": "Piemonte", "Type": 3.0, "Latitude": 45.023527, "Longitude": 8.625808, "cityName": "Valenza" }, "geometry": { "type": "Point", "coordinates": [ 8.625808, 45.023527 ] } },
{ "type": "Feature", "properties": { "ID": "S00042", "Name": "VALMADONNA", "RegionID": "3", "Region": "Piemonte", "Type": 3.0, "Latitude": 44.972588, "Longitude": 8.610667, "cityName": "A" }, "geometry": { "type": "Point", "coordinates": [ 8.610667, 44.972588 ] } },
{ "type": "Feature", "properties": { "ID": "S00050", "Name": "COMIGNAGO", "RegionID": "3", "Region": "Piemonte", "Type": 3.0, "Latitude": 45.714296, "Longitude": 8.566362, "cityName": "A" }, "geometry": { "type": "Point", "coordinates": [ 8.566362, 45.714296 ] } },
{ "type": "Feature", "properties": { "ID": "S00051", "Name": "CUREGGIO", "RegionID": "3", "Region": "Piemonte", "Type": 3.0, "Latitude": 45.672538, "Longitude": 8.456282, "cityName": "A" }, "geometry": { "type": "Point", "coordinates": [ 8.456282, 45.672538 ] } },
{ "type": "Feature", "properties": { "ID": "S00052", "Name": "GATTINARA", "RegionID": "3", "Region": "Piemonte", "Type": 3.0, "Latitude": 45.611523, "Longitude": 8.364288, "cityName": "A" }, "geometry": { "type": "Point", "coordinates": [ 8.364288, 45.611523 ] } },
{ "type": "Feature", "properties": { "ID": "S00053", "Name": "ROVASENDA", "RegionID": "3", "Region": "Piemonte", "Type": 3.0, "Latitude": 45.537291, "Longitude": 8.317376, "cityName": "Rovasenda" }, "geometry": { "type": "Point", "coordinates": [ 8.317376, 45.537291 ] } },
{ "type": "Feature", "properties": { "ID": "S00054", "Name": "BURONZO", "RegionID": "3", "Region": "Piemonte", "Type": 3.0, "Latitude": 45.47179, "Longitude": 8.2667, "cityName": "A" }, "geometry": { "type": "Point", "coordinates": [ 8.2667, 45.47179 ] } },
{ "type": "Feature", "properties": { "ID": "S00055", "Name": "CARISIO", "RegionID": "3", "Region": "Piemonte", "Type": 3.0, "Latitude": 45.403164, "Longitude": 8.21249, "cityName": "A" }, "geometry": { "type": "Point", "coordinates": [ 8.21249, 45.403164 ] } },
{ "type": "Feature", "properties": { "ID": "S00056", "Name": "ROVASENDA ALTA", "RegionID": "3", "Region": "Piemonte", "Type": 3.0, "Latitude": 45.537368, "Longitude": 8.316722, "cityName": "A" }, "geometry": { "type": "Point", "coordinates": [ 8.316722, 45.537368 ] } },
{ "type": "Feature", "properties": { "ID": "S00059", "Name": "GRUGLIASCO", "RegionID": "", "Region": "N.D.", "Type": null, "Latitude": null, "Longitude": null, "cityName": null }, "geometry": null },
{ "type": "Feature", "properties": { "ID": "S00060", "Name": "TORINO REBAUDENGO FOSSATA", "RegionID": "", "Region": "N.D.", "Type": null, "Latitude": null, "Longitude": null, "cityName": null }, "geometry": null },
{ "type": "Feature", "properties": { "ID": "S00070", "Name": "BIELLA S.PAOLO", "RegionID": "3", "Region": "Piemonte", "Type": 3.0, "Latitude": 45.557334, "Longitude": 8.067541, "cityName": "Biella" }, "geometry": { "type": "Point", "coordinates": [ 8.067541, 45.557334 ] } },
{ "type": "Feature", "properties": { "ID": "S00071", "Name": "CANDELO", "RegionID": "3", "Region": "Piemonte", "Type": 3.0, "Latitude": 45.547433, "Longitude": 8.100103, "cityName": "A" }, "geometry": { "type": "Point", "coordinates": [ 8.100103, 45.547433 ] } },
{ "type": "Feature", "properties": { "ID": "S00072", "Name": "SANDIGLIANO", "RegionID": "3", "Region": "Piemonte", "Type": 3.0, "Latitude": 45.519652, "Longitude": 8.081531, "cityName": "A" }, "geometry": { "type": "Point", "coordinates": [ 8.081531, 45.519652 ] } },
{ "type": "Feature", "properties": { "ID": "S00073", "Name": "VERGNASCO", "RegionID": "3", "Region": "Piemonte", "Type": 3.0, "Latitude": 45.489282, "Longitude": 8.091687, "cityName": "A" }, "geometry": { "type": "Point", "coordinates": [ 8.091687, 45.489282 ] } },
{ "type": "Feature", "properties": { "ID": "S00074", "Name": "SALUSSOLA", "RegionID": "3", "Region": "Piemonte", "Type": 3.0, "Latitude": 45.44438, "Longitude": 8.115195, "cityName": "A" }, "geometry": { "type": "Point", "coordinates": [ 8.115195, 45.44438 ] } },
{ "type": "Feature", "properties": { "ID": "S00075", "Name": "AGOGNATE", "RegionID": "", "Region": "N.D.", "Type": null, "Latitude": null, "Longitude": null, "cityName": null }, "geometry": null },
{ "type": "Feature", "properties": { "ID": "S00082", "Name": "PINEROLO OLIMPICA", "RegionID": "3", "Region": "Piemonte", "Type": 3.0, "Latitude": 44.893325, "Longitude": 7.349043, "cityName": "A" }, "geometry": { "type": "Point", "coordinates": [ 7.349043, 44.893325 ] } },
{ "type": "Feature", "properties": { "ID": "S00083", "Name": "MADONNA DI CAMPAGNA", "RegionID": "", "Region": "N.D.", "Type": null, "Latitude": null, "Longitude": null, "cityName": null }, "geometry": null },
{ "type": "Feature", "properties": { "ID": "S00084", "Name": "RIGOLA - STADIO", "RegionID": "", "Region": "N.D.", "Type": null, "Latitude": null, "Longitude": null, "cityName": null }, "geometry": null },
{ "type": "Feature", "properties": { "ID": "S00085", "Name": "VENARIA", "RegionID": "", "Region": "N.D.", "Type": null, "Latitude": null, "Longitude": null, "cityName": null }, "geometry": null },
{ "type": "Feature", "properties": { "ID": "S00086", "Name": "BORGARO", "RegionID": "", "Region": "N.D.", "Type": null, "Latitude": null, "Longitude": null, "cityName": null }, "geometry": null },
{ "type": "Feature", "properties": { "ID": "S00087", "Name": "CASELLE", "RegionID": "", "Region": "N.D.", "Type": null, "Latitude": null, "Longitude": null, "cityName": null }, "geometry": null },
{ "type": "Feature", "properties": { "ID": "S00088", "Name": "CASELLE AEROPORTO", "RegionID": "", "Region": "N.D.", "Type": null, "Latitude": null, "Longitude": null, "cityName": null }, "geometry": null },
{ "type": "Feature", "properties": { "ID": "S00089", "Name": "SAN MAURIZIO", "RegionID": "", "Region": "N.D.", "Type": null, "Latitude": null, "Longitude": null, "cityName": null }, "geometry": null },
{ "type": "Feature", "properties": { "ID": "S00090", "Name": "CIRE'", "RegionID": "", "Region": "N.D.", "Type": null, "Latitude": null, "Longitude": null, "cityName": null }, "geometry": null },
{ "type": "Feature", "properties": { "ID": "S00091", "Name": "NOLE", "RegionID": "", "Region": "N.D.", "Type": null, "Latitude": null, "Longitude": null, "cityName": null }, "geometry": null },
{ "type": "Feature", "properties": { "ID": "S00092", "Name": "VILLANOVA - GROSSO", "RegionID": "", "Region": "N.D.", "Type": null, "Latitude": null, "Longitude": null, "cityName": null }, "geometry": null },
{ "type": "Feature", "properties": { "ID": "S00093", "Name": "MATHI", "RegionID": "", "Region": "N.D.", "Type": null, "Latitude": null, "Longitude": null, "cityName": null }, "geometry": null },
{ "type": "Feature", "properties": { "ID": "S00094", "Name": "BALANGERO", "RegionID": "", "Region": "N.D.", "Type": null, "Latitude": null, "Longitude": null, "cityName": null }, "geometry": null },
{ "type": "Feature", "properties": { "ID": "S00095", "Name": "LANZO", "RegionID": "", "Region": "N.D.", "Type": null, "Latitude": null, "Longitude": null, "cityName": null }, "geometry": null },
{ "type": "Feature", "properties": { "ID": "S00096", "Name": "GERMAGNANO", "RegionID": "", "Region": "N.D.", "Type": null, "Latitude": null, "Longitude": null, "cityName": null }, "geometry": null },
{ "type": "Feature", "properties": { "ID": "S00100", "Name": "VARALLO SESIA", "RegionID": "3", "Region": "Piemonte", "Type": 3.0, "Latitude": 45.815227, "Longitude": 8.256606, "cityName": "Varallo Sesia" }, "geometry": { "type": "Point", "coordinates": [ 8.256606, 45.815227 ] } },
{ "type": "Feature", "properties": { "ID": "S00102", "Name": "QUARONA", "RegionID": "3", "Region": "Piemonte", "Type": 3.0, "Latitude": 45.763547, "Longitude": 8.266603, "cityName": "A" }, "geometry": { "type": "Point", "coordinates": [ 8.266603, 45.763547 ] } },
{ "type": "Feature", "properties": { "ID": "S00104", "Name": "BORGOSESIA", "RegionID": "3", "Region": "Piemonte", "Type": 3.0, "Latitude": 45.716798, "Longitude": 8.28239, "cityName": "A" }, "geometry": { "type": "Point", "coordinates": [ 8.28239, 45.716798 ] } },
{ "type": "Feature", "properties": { "ID": "S00106", "Name": "GRIGNASCO", "RegionID": "3", "Region": "Piemonte", "Type": 3.0, "Latitude": 45.683288, "Longitude": 8.332913, "cityName": "A" }, "geometry": { "type": "Point", "coordinates": [ 8.332913, 45.683288 ] } },
{ "type": "Feature", "properties": { "ID": "S00108", "Name": "PRATO SESIA", "RegionID": "3", "Region": "Piemonte", "Type": 3.0, "Latitude": 45.646472, "Longitude": 8.370476, "cityName": "A" }, "geometry": { "type": "Point", "coordinates": [ 8.370476, 45.646472 ] } },
{ "type": "Feature", "properties": { "ID": "S00109", "Name": "ROMAGNANO SESIA", "RegionID": "3", "Region": "Piemonte", "Type": 3.0, "Latitude": 45.629888, "Longitude": 8.384581, "cityName": "Romagnano Sesia" }, "geometry": { "type": "Point", "coordinates": [ 8.384581, 45.629888 ] } },
{ "type": "Feature", "properties": { "ID": "S00110", "Name": "GHEMME", "RegionID": "3", "Region": "Piemonte", "Type": 3.0, "Latitude": 45.595882, "Longitude": 8.417135, "cityName": "A" }, "geometry": { "type": "Point", "coordinates": [ 8.417135, 45.595882 ] } },
{ "type": "Feature", "properties": { "ID": "S00111", "Name": "SIZZANO", "RegionID": "3", "Region": "Piemonte", "Type": 3.0, "Latitude": 45.573834, "Longitude": 8.436024, "cityName": "A" }, "geometry": { "type": "Point", "coordinates": [ 8.436024, 45.573834 ] } },
{ "type": "Feature", "properties": { "ID": "S00112", "Name": "FARA", "RegionID": "3", "Region": "Piemonte", "Type": 3.0, "Latitude": 45.550556, "Longitude": 8.458049, "cityName": "A" }, "geometry": { "type": "Point", "coordinates": [ 8.458049, 45.550556 ] } },
{ "type": "Feature", "properties": { "ID": "S00113", "Name": "BRIONA", "RegionID": "3", "Region": "Piemonte", "Type": 3.0, "Latitude": 45.538568, "Longitude": 8.479541, "cityName": "A" }, "geometry": { "type": "Point", "coordinates": [ 8.479541, 45.538568 ] } },
{ "type": "Feature", "properties": { "ID": "S00125", "Name": "GYEKENYES", "RegionID": "", "Region": "N.D.", "Type": null, "Latitude": null, "Longitude": null, "cityName": null }, "geometry": null },
{ "type": "Feature", "properties": { "ID": "S00130", "Name": "PRE` SAINT DIDIER", "RegionID": "4", "Region": "Valle d'Aosta", "Type": 3.0, "Latitude": 45.7636, "Longitude": 6.99105, "cityName": "Pre` Saint Didier" }, "geometry": { "type": "Point", "coordinates": [ 6.99105, 45.7636 ] } },
{ "type": "Feature", "properties": { "ID": "S00131", "Name": "MORGEX", "RegionID": "4", "Region": "Valle d'Aosta", "Type": 3.0, "Latitude": 45.757055, "Longitude": 7.033898, "cityName": "A" }, "geometry": { "type": "Point", "coordinates": [ 7.033898, 45.757055 ] } },
{ "type": "Feature", "properties": { "ID": "S00132", "Name": "LA SALLE", "RegionID": "4", "Region": "Valle d'Aosta", "Type": 3.0, "Latitude": 45.744637, "Longitude": 7.061987, "cityName": "A" }, "geometry": { "type": "Point", "coordinates": [ 7.061987, 45.744637 ] } },
{ "type": "Feature", "properties": { "ID": "S00133", "Name": "AVISE", "RegionID": "4", "Region": "Valle d'Aosta", "Type": 3.0, "Latitude": 45.706296, "Longitude": 7.131285, "cityName": "A" }, "geometry": { "type": "Point", "coordinates": [ 7.131285, 45.706296 ] } },
{ "type": "Feature", "properties": { "ID": "S00134", "Name": "ARVIER", "RegionID": "4", "Region": "Valle d'Aosta", "Type": 3.0, "Latitude": 45.704259, "Longitude": 7.166681, "cityName": "A" }, "geometry": { "type": "Point", "coordinates": [ 7.166681, 45.704259 ] } },
{ "type": "Feature", "properties": { "ID": "S00135", "Name": "VILLENEUVE", "RegionID": "4", "Region": "Valle d'Aosta", "Type": 3.0, "Latitude": 45.706648, "Longitude": 7.213481, "cityName": "A" }, "geometry": { "type": "Point", "coordinates": [ 7.213481, 45.706648 ] } },
{ "type": "Feature", "properties": { "ID": "S00136", "Name": "SARRE", "RegionID": "4", "Region": "Valle d'Aosta", "Type": 3.0, "Latitude": 45.717919, "Longitude": 7.258468, "cityName": "A" }, "geometry": { "type": "Point", "coordinates": [ 7.258468, 45.717919 ] } },
{ "type": "Feature", "properties": { "ID": "S00137", "Name": "AOSTA", "RegionID": "4", "Region": "Valle d'Aosta", "Type": 3.0, "Latitude": 45.73407, "Longitude": 7.322424, "cityName": "Aosta" }, "geometry": { "type": "Point", "coordinates": [ 7.322424, 45.73407 ] } },
{ "type": "Feature", "properties": { "ID": "S00138", "Name": "QUART", "RegionID": "4", "Region": "Valle d'Aosta", "Type": 3.0, "Latitude": 45.741372, "Longitude": 7.414645, "cityName": "A" }, "geometry": { "type": "Point", "coordinates": [ 7.414645, 45.741372 ] } },
{ "type": "Feature", "properties": { "ID": "S00140", "Name": "NUS", "RegionID": "4", "Region": "Valle d'Aosta", "Type": 3.0, "Latitude": 45.738786, "Longitude": 7.4712, "cityName": "A" }, "geometry": { "type": "Point", "coordinates": [ 7.4712, 45.738786 ] } },
{ "type": "Feature", "properties": { "ID": "S00141", "Name": "CHAMBAVE", "RegionID": "4", "Region": "Valle d'Aosta", "Type": 3.0, "Latitude": 45.744163, "Longitude": 7.557301, "cityName": "A" }, "geometry": { "type": "Point", "coordinates": [ 7.557301, 45.744163 ] } },
{ "type": "Feature", "properties": { "ID": "S00142", "Name": "CHATILLON SAINT VINCENT", "RegionID": "4", "Region": "Valle d'Aosta", "Type": 3.0, "Latitude": 45.7434, "Longitude": 7.619309, "cityName": "A" }, "geometry": { "type": "Point", "coordinates": [ 7.619309, 45.7434 ] } },
{ "type": "Feature", "properties": { "ID": "S00143", "Name": "AOSTA ISTITUTO", "RegionID": "4", "Region": "Valle d'Aosta", "Type": 3.0, "Latitude": 45.732938, "Longitude": 7.303076, "cityName": "A" }, "geometry": { "type": "Point", "coordinates": [ 7.303076, 45.732938 ] } },
{ "type": "Feature", "properties": { "ID": "S00144", "Name": "MONTJOVET", "RegionID": "4", "Region": "Valle d'Aosta", "Type": 3.0, "Latitude": 45.704586, "Longitude": 7.666871, "cityName": "A" }, "geometry": { "type": "Point", "coordinates": [ 7.666871, 45.704586 ] } },
{ "type": "Feature", "properties": { "ID": "S00145", "Name": "VERRES", "RegionID": "4", "Region": "Valle d'Aosta", "Type": 3.0, "Latitude": 45.659822, "Longitude": 7.690012, "cityName": "A" }, "geometry": { "type": "Point", "coordinates": [ 7.690012, 45.659822 ] } },
{ "type": "Feature", "properties": { "ID": "S00146", "Name": "AOSTA VIALE EUROPA", "RegionID": "4", "Region": "Valle d'Aosta", "Type": 3.0, "Latitude": 45.733294, "Longitude": 7.297371, "cityName": "A" }, "geometry": { "type": "Point", "coordinates": [ 7.297371, 45.733294 ] } },
{ "type": "Feature", "properties": { "ID": "S00147", "Name": "HONE BARD", "RegionID": "4", "Region": "Valle d'Aosta", "Type": 3.0, "Latitude": 45.613918, "Longitude": 7.741345, "cityName": "A" }, "geometry": { "type": "Point", "coordinates": [ 7.741345, 45.613918 ] } },
{ "type": "Feature", "properties": { "ID": "S00148", "Name": "DONNAZ", "RegionID": "4", "Region": "Valle d'Aosta", "Type": 3.0, "Latitude": 45.602713, "Longitude": 7.769563, "cityName": "A" }, "geometry": { "type": "Point", "coordinates": [ 7.769563, 45.602713 ] } },
{ "type": "Feature", "properties": { "ID": "S00149", "Name": "PONT SAINT MARTIN", "RegionID": "4", "Region": "Valle d'Aosta", "Type": 3.0, "Latitude": 45.589834, "Longitude": 7.795024, "cityName": "Pont Saint Martin" }, "geometry": { "type": "Point", "coordinates": [ 7.795024, 45.589834 ] } },
{ "type": "Feature", "properties": { "ID": "S00150", "Name": "QUINCINETTO", "RegionID": "3", "Region": "Piemonte", "Type": 3.0, "Latitude": 45.567295, "Longitude": 7.809711, "cityName": "A" }, "geometry": { "type": "Point", "coordinates": [ 7.809711, 45.567295 ] } },
{ "type": "Feature", "properties": { "ID": "S00151", "Name": "SETTIMO TAVAGNASCO", "RegionID": "3", "Region": "Piemonte", "Type": 3.0, "Latitude": 45.546214, "Longitude": 7.825189, "cityName": "A" }, "geometry": { "type": "Point", "coordinates": [ 7.825189, 45.546214 ] } },
{ "type": "Feature", "properties": { "ID": "S00152", "Name": "BORGOFRANCO", "RegionID": "3", "Region": "Piemonte", "Type": 3.0, "Latitude": 45.514775, "Longitude": 7.854612, "cityName": "A" }, "geometry": { "type": "Point", "coordinates": [ 7.854612, 45.514775 ] } },
{ "type": "Feature", "properties": { "ID": "S00153", "Name": "MONTALTO DORA", "RegionID": "3", "Region": "Piemonte", "Type": 3.0, "Latitude": 45.490309, "Longitude": 7.858986, "cityName": "A" }, "geometry": { "type": "Point", "coordinates": [ 7.858986, 45.490309 ] } },
{ "type": "Feature", "properties": { "ID": "S00154", "Name": "IVREA", "RegionID": "3", "Region": "Piemonte", "Type": 3.0, "Latitude": 45.461542, "Longitude": 7.876348, "cityName": "Ivrea" }, "geometry": { "type": "Point", "coordinates": [ 7.876348, 45.461542 ] } },
{ "type": "Feature", "properties": { "ID": "S00155", "Name": "STRAMBINO", "RegionID": "3", "Region": "Piemonte", "Type": 3.0, "Latitude": 45.382508, "Longitude": 7.887955, "cityName": "A" }, "geometry": { "type": "Point", "coordinates": [ 7.887955, 45.382508 ] } },
{ "type": "Feature", "properties": { "ID": "S00156", "Name": "MERCENASCO", "RegionID": "3", "Region": "Piemonte", "Type": 3.0, "Latitude": 45.353436, "Longitude": 7.886405, "cityName": "A" }, "geometry": { "type": "Point", "coordinates": [ 7.886405, 45.353436 ] } },
{ "type": "Feature", "properties": { "ID": "S00157", "Name": "CANDIA CANAVESE", "RegionID": "3", "Region": "Piemonte", "Type": 3.0, "Latitude": 45.329824, "Longitude": 7.891819, "cityName": "A" }, "geometry": { "type": "Point", "coordinates": [ 7.891819, 45.329824 ] } },
{ "type": "Feature", "properties": { "ID": "S00158", "Name": "CALUSO", "RegionID": "3", "Region": "Piemonte", "Type": 3.0, "Latitude": 45.303194, "Longitude": 7.902568, "cityName": "A" }, "geometry": { "type": "Point", "coordinates": [ 7.902568, 45.303194 ] } },
{ "type": "Feature", "properties": { "ID": "S00159", "Name": "RODALLO", "RegionID": "3", "Region": "Piemonte", "Type": 3.0, "Latitude": 45.278714, "Longitude": 7.878025, "cityName": "A" }, "geometry": { "type": "Point", "coordinates": [ 7.878025, 45.278714 ] } },
{ "type": "Feature", "properties": { "ID": "S00160", "Name": "MONTANARO", "RegionID": "3", "Region": "Piemonte", "Type": 3.0, "Latitude": 45.232674, "Longitude": 7.858331, "cityName": "A" }, "geometry": { "type": "Point", "coordinates": [ 7.858331, 45.232674 ] } },
{ "type": "Feature", "properties": { "ID": "S00161", "Name": "SAINT PIERRE", "RegionID": "4", "Region": "Valle d'Aosta", "Type": 3.0, "Latitude": 45.708146, "Longitude": 7.229338, "cityName": "A" }, "geometry": { "type": "Point", "coordinates": [ 7.229338, 45.708146 ] } },
{ "type": "Feature", "properties": { "ID": "S00162", "Name": "DERBY", "RegionID": "4", "Region": "Valle d'Aosta", "Type": 3.0, "Latitude": 45.730289, "Longitude": 7.087018, "cityName": "A" }, "geometry": { "type": "Point", "coordinates": [ 7.087018, 45.730289 ] } },
{ "type": "Feature", "properties": { "ID": "S00170", "Name": "VEROLENGO", "RegionID": "3", "Region": "Piemonte", "Type": 3.0, "Latitude": 45.193107, "Longitude": 7.969511, "cityName": "A" }, "geometry": { "type": "Point", "coordinates": [ 7.969511, 45.193107 ] } },
{ "type": "Feature", "properties": { "ID": "S00171", "Name": "BORGO REVEL", "RegionID": "3", "Region": "Piemonte", "Type": 3.0, "Latitude": 45.189827, "Longitude": 8.02021, "cityName": "A" }, "geometry": { "type": "Point", "coordinates": [ 8.02021, 45.189827 ] } },
{ "type": "Feature", "properties": { "ID": "S00172", "Name": "CRESCENTINO", "RegionID": "3", "Region": "Piemonte", "Type": 3.0, "Latitude": 45.194302, "Longitude": 8.107175, "cityName": "A" }, "geometry": { "type": "Point", "coordinates": [ 8.107175, 45.194302 ] } },
{ "type": "Feature", "properties": { "ID": "S00173", "Name": "S.SILVESTRO", "RegionID": "3", "Region": "Piemonte", "Type": 3.0, "Latitude": 45.19366, "Longitude": 8.148095, "cityName": "A" }, "geometry": { "type": "Point", "coordinates": [ 8.148095, 45.19366 ] } },
{ "type": "Feature", "properties": { "ID": "S00174", "Name": "FONTANETTO PO", "RegionID": "3", "Region": "Piemonte", "Type": 3.0, "Latitude": 45.191238, "Longitude": 8.188697, "cityName": "A" }, "geometry": { "type": "Point", "coordinates": [ 8.188697, 45.191238 ] } },
{ "type": "Feature", "properties": { "ID": "S00175", "Name": "PALAZZOLO VERCELLESE", "RegionID": "3", "Region": "Piemonte", "Type": 3.0, "Latitude": 45.189004, "Longitude": 8.232787, "cityName": "A" }, "geometry": { "type": "Point", "coordinates": [ 8.232787, 45.189004 ] } },
{ "type": "Feature", "properties": { "ID": "S00176", "Name": "TRINO VERCELLESE", "RegionID": "3", "Region": "Piemonte", "Type": 3.0, "Latitude": 45.190066, "Longitude": 8.294093, "cityName": "A" }, "geometry": { "type": "Point", "coordinates": [ 8.294093, 45.190066 ] } },
{ "type": "Feature", "properties": { "ID": "S00177", "Name": "MORANO SUL PO", "RegionID": "3", "Region": "Piemonte", "Type": 3.0, "Latitude": 45.170793, "Longitude": 8.366168, "cityName": "A" }, "geometry": { "type": "Point", "coordinates": [ 8.366168, 45.170793 ] } },
{ "type": "Feature", "properties": { "ID": "S00178", "Name": "BALZOLA", "RegionID": "3", "Region": "Piemonte", "Type": 3.0, "Latitude": 45.173985, "Longitude": 8.402174, "cityName": "A" }, "geometry": { "type": "Point", "coordinates": [ 8.402174, 45.173985 ] } },
{ "type": "Feature", "properties": { "ID": "S00179", "Name": "CASALE POPOLO", "RegionID": "3", "Region": "Piemonte", "Type": 3.0, "Latitude": 45.160434, "Longitude": 8.44055, "cityName": "Casale Popolo" }, "geometry": { "type": "Point", "coordinates": [ 8.44055, 45.160434 ] } },
{ "type": "Feature", "properties": { "ID": "S00190", "Name": "MODANE FX", "RegionID": "", "Region": "N.D.", "Type": null, "Latitude": null, "Longitude": null, "cityName": null }, "geometry": null },
{ "type": "Feature", "properties": { "ID": "S00201", "Name": "MODANE", "RegionID": "", "Region": "N.D.", "Type": null, "Latitude": null, "Longitude": null, "cityName": null }, "geometry": null },
{ "type": "Feature", "properties": { "ID": "S00202", "Name": "BARDONECCHIA", "RegionID": "3", "Region": "Piemonte", "Type": 4.0, "Latitude": 45.076447, "Longitude": 6.709959, "cityName": "Bardonecchia" }, "geometry": { "type": "Point", "coordinates": [ 6.709959, 45.076447 ] } },
{ "type": "Feature", "properties": { "ID": "S00203", "Name": "BEAULARD", "RegionID": "3", "Region": "Piemonte", "Type": 3.0, "Latitude": 45.046495, "Longitude": 6.759713, "cityName": "A" }, "geometry": { "type": "Point", "coordinates": [ 6.759713, 45.046495 ] } },
{ "type": "Feature", "properties": { "ID": "S00204", "Name": "OULX CESANA CLAVIERE SESTRIERE", "RegionID": "3", "Region": "Piemonte", "Type": 3.0, "Latitude": 45.038789, "Longitude": 6.831432, "cityName": "A" }, "geometry": { "type": "Point", "coordinates": [ 6.831432, 45.038789 ] } },
{ "type": "Feature", "properties": { "ID": "S00205", "Name": "SALBERTRAND", "RegionID": "3", "Region": "Piemonte", "Type": 3.0, "Latitude": 45.073478, "Longitude": 6.887428, "cityName": "A" }, "geometry": { "type": "Point", "coordinates": [ 6.887428, 45.073478 ] } },
{ "type": "Feature", "properties": { "ID": "S00206", "Name": "CHIOMONTE", "RegionID": "3", "Region": "Piemonte", "Type": 3.0, "Latitude": 45.119876, "Longitude": 6.988716, "cityName": "A" }, "geometry": { "type": "Point", "coordinates": [ 6.988716, 45.119876 ] } },
{ "type": "Feature", "properties": { "ID": "S00208", "Name": "BUSSOLENO", "RegionID": "3", "Region": "Piemonte", "Type": 3.0, "Latitude": 45.139631, "Longitude": 7.144819, "cityName": "Bussoleno" }, "geometry": { "type": "Point", "coordinates": [ 7.144819, 45.139631 ] } },
{ "type": "Feature", "properties": { "ID": "S00209", "Name": "BRUZOLO", "RegionID": "3", "Region": "Piemonte", "Type": 3.0, "Latitude": 45.131032, "Longitude": 7.201497, "cityName": "A" }, "geometry": { "type": "Point", "coordinates": [ 7.201497, 45.131032 ] } },
{ "type": "Feature", "properties": { "ID": "S00210", "Name": "BORGONE", "RegionID": "3", "Region": "Piemonte", "Type": 3.0, "Latitude": 45.123191, "Longitude": 7.236037, "cityName": "A" }, "geometry": { "type": "Point", "coordinates": [ 7.236037, 45.123191 ] } },
{ "type": "Feature", "properties": { "ID": "S00211", "Name": "S. ANTONINO VAIE", "RegionID": "3", "Region": "Piemonte", "Type": 3.0, "Latitude": 45.109469, "Longitude": 7.275931, "cityName": "A" }, "geometry": { "type": "Point", "coordinates": [ 7.275931, 45.109469 ] } },
{ "type": "Feature", "properties": { "ID": "S00212", "Name": "CONDOVE", "RegionID": "3", "Region": "Piemonte", "Type": 3.0, "Latitude": 45.106689, "Longitude": 7.317022, "cityName": "A" }, "geometry": { "type": "Point", "coordinates": [ 7.317022, 45.106689 ] } },
{ "type": "Feature", "properties": { "ID": "S00213", "Name": "S. AMBROGIO", "RegionID": "3", "Region": "Piemonte", "Type": 3.0, "Latitude": 45.101161, "Longitude": 7.360933, "cityName": "A" }, "geometry": { "type": "Point", "coordinates": [ 7.360933, 45.101161 ] } },
{ "type": "Feature", "properties": { "ID": "S00214", "Name": "AVIGLIANA", "RegionID": "3", "Region": "Piemonte", "Type": 3.0, "Latitude": 45.085276, "Longitude": 7.401096, "cityName": "A" }, "geometry": { "type": "Point", "coordinates": [ 7.401096, 45.085276 ] } },
{ "type": "Feature", "properties": { "ID": "S00215", "Name": "ROSTA", "RegionID": "3", "Region": "Piemonte", "Type": 3.0, "Latitude": 45.078397, "Longitude": 7.463963, "cityName": "A" }, "geometry": { "type": "Point", "coordinates": [ 7.463963, 45.078397 ] } },
{ "type": "Feature", "properties": { "ID": "S00216", "Name": "ALPIGNANO", "RegionID": "3", "Region": "Piemonte", "Type": 3.0, "Latitude": 45.091077, "Longitude": 7.523745, "cityName": "A" }, "geometry": { "type": "Point", "coordinates": [ 7.523745, 45.091077 ] } },
{ "type": "Feature", "properties": { "ID": "S00217", "Name": "COLLEGNO", "RegionID": "3", "Region": "Piemonte", "Type": 3.0, "Latitude": 45.078854, "Longitude": 7.574131, "cityName": "A" }, "geometry": { "type": "Point", "coordinates": [ 7.574131, 45.078854 ] } },
{ "type": "Feature", "properties": { "ID": "S00219", "Name": "TORINO P.NUOVA", "RegionID": "3", "Region": "Piemonte", "Type": 1.0, "Latitude": 45.060969, "Longitude": 7.67747, "cityName": "Torino" }, "geometry": { "type": "Point", "coordinates": [ 7.67747, 45.060969 ] } },
{ "type": "Feature", "properties": { "ID": "S00223", "Name": "TORINO S. PAOLO", "RegionID": "3", "Region": "Piemonte", "Type": 3.0, "Latitude": 45.054519, "Longitude": 7.639557, "cityName": "A" }, "geometry": { "type": "Point", "coordinates": [ 7.639557, 45.054519 ] } },
{ "type": "Feature", "properties": { "ID": "S00224", "Name": "TORINO DORA", "RegionID": "3", "Region": "Piemonte", "Type": 3.0, "Latitude": 45.090085, "Longitude": 7.677853, "cityName": "A" }, "geometry": { "type": "Point", "coordinates": [ 7.677853, 45.090085 ] } },
{ "type": "Feature", "properties": { "ID": "S00226", "Name": "PM Agognate", "RegionID": "", "Region": "N.D.", "Type": null, "Latitude": null, "Longitude": null, "cityName": null }, "geometry": null },
{ "type": "Feature", "properties": { "ID": "S00228", "Name": "TORINO STURA", "RegionID": "3", "Region": "Piemonte", "Type": 3.0, "Latitude": 45.121932, "Longitude": 7.713202, "cityName": "A" }, "geometry": { "type": "Point", "coordinates": [ 7.713202, 45.121932 ] } },
{ "type": "Feature", "properties": { "ID": "S00229", "Name": "SETTIMO", "RegionID": "3", "Region": "Piemonte", "Type": 3.0, "Latitude": 45.139834, "Longitude": 7.769335, "cityName": "A" }, "geometry": { "type": "Point", "coordinates": [ 7.769335, 45.139834 ] } },
{ "type": "Feature", "properties": { "ID": "S00231", "Name": "BRANDIZZO", "RegionID": "3", "Region": "Piemonte", "Type": 3.0, "Latitude": 45.178915, "Longitude": 7.841218, "cityName": "A" }, "geometry": { "type": "Point", "coordinates": [ 7.841218, 45.178915 ] } },
{ "type": "Feature", "properties": { "ID": "S00232", "Name": "CHIVASSO", "RegionID": "3", "Region": "Piemonte", "Type": 3.0, "Latitude": 45.193637, "Longitude": 7.889666, "cityName": "Chivasso" }, "geometry": { "type": "Point", "coordinates": [ 7.889666, 45.193637 ] } },
{ "type": "Feature", "properties": { "ID": "S00233", "Name": "CASTELROSSO", "RegionID": "3", "Region": "Piemonte", "Type": 3.0, "Latitude": 45.201802, "Longitude": 7.932162, "cityName": "A" }, "geometry": { "type": "Point", "coordinates": [ 7.932162, 45.201802 ] } },
{ "type": "Feature", "properties": { "ID": "S00234", "Name": "TORRAZZA P.", "RegionID": "3", "Region": "Piemonte", "Type": 3.0, "Latitude": 45.211855, "Longitude": 7.970255, "cityName": "A" }, "geometry": { "type": "Point", "coordinates": [ 7.970255, 45.211855 ] } },
{ "type": "Feature", "properties": { "ID": "S00235", "Name": "SALUGGIA", "RegionID": "3", "Region": "Piemonte", "Type": 3.0, "Latitude": 45.23443, "Longitude": 8.017112, "cityName": "A" }, "geometry": { "type": "Point", "coordinates": [ 8.017112, 45.23443 ] } },
{ "type": "Feature", "properties": { "ID": "S00236", "Name": "S. ANTONINO DI SALUGGIA", "RegionID": "3", "Region": "Piemonte", "Type": 3.0, "Latitude": 45.253967, "Longitude": 8.039728, "cityName": "A" }, "geometry": { "type": "Point", "coordinates": [ 8.039728, 45.253967 ] } },
{ "type": "Feature", "properties": { "ID": "S00237", "Name": "LIVORNO FERRARIS", "RegionID": "3", "Region": "Piemonte", "Type": 3.0, "Latitude": 45.283402, "Longitude": 8.073493, "cityName": "A" }, "geometry": { "type": "Point", "coordinates": [ 8.073493, 45.283402 ] } },
{ "type": "Feature", "properties": { "ID": "S00238", "Name": "BIANZE`", "RegionID": "3", "Region": "Piemonte", "Type": 3.0, "Latitude": 45.309488, "Longitude": 8.115523, "cityName": "A" }, "geometry": { "type": "Point", "coordinates": [ 8.115523, 45.309488 ] } },
{ "type": "Feature", "properties": { "ID": "S00239", "Name": "TRONZANO", "RegionID": "3", "Region": "Piemonte", "Type": 3.0, "Latitude": 45.342929, "Longitude": 8.168395, "cityName": "A" }, "geometry": { "type": "Point", "coordinates": [ 8.168395, 45.342929 ] } },
{ "type": "Feature", "properties": { "ID": "S00240", "Name": "SANTHIA`", "RegionID": "3", "Region": "Piemonte", "Type": 3.0, "Latitude": 45.363726, "Longitude": 8.180093, "cityName": "Santhia`" }, "geometry": { "type": "Point", "coordinates": [ 8.180093, 45.363726 ] } },
{ "type": "Feature", "properties": { "ID": "S00243", "Name": "S. GERMANO VERCELLESE", "RegionID": "3", "Region": "Piemonte", "Type": 3.0, "Latitude": 45.353603, "Longitude": 8.249958, "cityName": "A" }, "geometry": { "type": "Point", "coordinates": [ 8.249958, 45.353603 ] } },
{ "type": "Feature", "properties": { "ID": "S00244", "Name": "OLCENENGO", "RegionID": "3", "Region": "Piemonte", "Type": 3.0, "Latitude": 45.34147, "Longitude": 8.310096, "cityName": "A" }, "geometry": { "type": "Point", "coordinates": [ 8.310096, 45.34147 ] } },
{ "type": "Feature", "properties": { "ID": "S00245", "Name": "VERCELLI", "RegionID": "3", "Region": "Piemonte", "Type": 3.0, "Latitude": 45.329909, "Longitude": 8.416028, "cityName": "Vercelli" }, "geometry": { "type": "Point", "coordinates": [ 8.416028, 45.329909 ] } },
{ "type": "Feature", "properties": { "ID": "S00246", "Name": "BORGO VERCELLI", "RegionID": "3", "Region": "Piemonte", "Type": 3.0, "Latitude": 45.359252, "Longitude": 8.461474, "cityName": "A" }, "geometry": { "type": "Point", "coordinates": [ 8.461474, 45.359252 ] } },
{ "type": "Feature", "properties": { "ID": "S00247", "Name": "PONZANA", "RegionID": "3", "Region": "Piemonte", "Type": 3.0, "Latitude": 45.402685, "Longitude": 8.522689, "cityName": "A" }, "geometry": { "type": "Point", "coordinates": [ 8.522689, 45.402685 ] } },
{ "type": "Feature", "properties": { "ID": "S00248", "Name": "NOVARA", "RegionID": "3", "Region": "Piemonte", "Type": 3.0, "Latitude": 45.451376, "Longitude": 8.624895, "cityName": "Novara" }, "geometry": { "type": "Point", "coordinates": [ 8.624895, 45.451376 ] } },
{ "type": "Feature", "properties": { "ID": "S00251", "Name": "EXILLES", "RegionID": "3", "Region": "Piemonte", "Type": 3.0, "Latitude": 45.08999, "Longitude": 6.927344, "cityName": "A" }, "geometry": { "type": "Point", "coordinates": [ 6.927344, 45.08999 ] } },
{ "type": "Feature", "properties": { "ID": "S00252", "Name": "TRECATE", "RegionID": "1", "Region": "Lombardia", "Type": 4.0, "Latitude": 45.428589, "Longitude": 8.739561, "cityName": "Trecate" }, "geometry": { "type": "Point", "coordinates": [ 8.739561, 45.428589 ] } },
{ "type": "Feature", "properties": { "ID": "S00260", "Name": "SUSA", "RegionID": "3", "Region": "Piemonte", "Type": 3.0, "Latitude": 45.138622, "Longitude": 7.052311, "cityName": "Susa" }, "geometry": { "type": "Point", "coordinates": [ 7.052311, 45.138622 ] } },
{ "type": "Feature", "properties": { "ID": "S00271", "Name": "PALESTRO", "RegionID": "1", "Region": "Lombardia", "Type": 3.0, "Latitude": 45.307274, "Longitude": 8.534511, "cityName": "A" }, "geometry": { "type": "Point", "coordinates": [ 8.534511, 45.307274 ] } },
{ "type": "Feature", "properties": { "ID": "S00272", "Name": "ROBBIO", "RegionID": "1", "Region": "Lombardia", "Type": 3.0, "Latitude": 45.293542, "Longitude": 8.597051, "cityName": "A" }, "geometry": { "type": "Point", "coordinates": [ 8.597051, 45.293542 ] } },
{ "type": "Feature", "properties": { "ID": "S00273", "Name": "NICORVO", "RegionID": "1", "Region": "Lombardia", "Type": 3.0, "Latitude": 45.275462, "Longitude": 8.6712, "cityName": "A" }, "geometry": { "type": "Point", "coordinates": [ 8.6712, 45.275462 ] } },
{ "type": "Feature", "properties": { "ID": "S00274", "Name": "GAMBOLO`REMONDO`", "RegionID": "1", "Region": "Lombardia", "Type": 3.0, "Latitude": 45.23587, "Longitude": 8.79757, "cityName": "A" }, "geometry": { "type": "Point", "coordinates": [ 8.79757, 45.23587 ] } },
{ "type": "Feature", "properties": { "ID": "S00275", "Name": "TROMELLO", "RegionID": "1", "Region": "Lombardia", "Type": 3.0, "Latitude": 45.211988, "Longitude": 8.872154, "cityName": "A" }, "geometry": { "type": "Point", "coordinates": [ 8.872154, 45.211988 ] } },
{ "type": "Feature", "properties": { "ID": "S00276", "Name": "GARLASCO", "RegionID": "1", "Region": "Lombardia", "Type": 3.0, "Latitude": 45.198948, "Longitude": 8.926829, "cityName": "A" }, "geometry": { "type": "Point", "coordinates": [ 8.926829, 45.198948 ] } },
{ "type": "Feature", "properties": { "ID": "S00277", "Name": "GROPELLO CAIROLI", "RegionID": "1", "Region": "Lombardia", "Type": 3.0, "Latitude": 45.173101, "Longitude": 8.991626, "cityName": "A" }, "geometry": { "type": "Point", "coordinates": [ 8.991626, 45.173101 ] } },
{ "type": "Feature", "properties": { "ID": "S00278", "Name": "VILLANOVA D`ARDENGHI", "RegionID": "1", "Region": "Lombardia", "Type": 3.0, "Latitude": 45.156982, "Longitude": 9.037176, "cityName": "A" }, "geometry": { "type": "Point", "coordinates": [ 9.037176, 45.156982 ] } },
{ "type": "Feature", "properties": { "ID": "S00279", "Name": "CAVA CARBONARA", "RegionID": "1", "Region": "Lombardia", "Type": 3.0, "Latitude": 45.147055, "Longitude": 9.071387, "cityName": "Cava Carbonara" }, "geometry": { "type": "Point", "coordinates": [ 9.071387, 45.147055 ] } },
{ "type": "Feature", "properties": { "ID": "S00300", "Name": "BELLINZONA", "RegionID": "", "Region": "N.D.", "Type": null, "Latitude": null, "Longitude": null, "cityName": null }, "geometry": null },
{ "type": "Feature", "properties": { "ID": "S00311", "Name": "PERTENGO", "RegionID": "3", "Region": "Piemonte", "Type": 3.0, "Latitude": 45.233305, "Longitude": 8.426739, "cityName": "A" }, "geometry": { "type": "Point", "coordinates": [ 8.426739, 45.233305 ] } },
{ "type": "Feature", "properties": { "ID": "S00314", "Name": "CASALE MONFERRATO", "RegionID": "3", "Region": "Piemonte", "Type": 3.0, "Latitude": 45.133928, "Longitude": 8.460292, "cityName": "Casale Monferrato" }, "geometry": { "type": "Point", "coordinates": [ 8.460292, 45.133928 ] } },
{ "type": "Feature", "properties": { "ID": "S00315", "Name": "BORGO S.MARTINO", "RegionID": "3", "Region": "Piemonte", "Type": 3.0, "Latitude": 45.087083, "Longitude": 8.520661, "cityName": "A" }, "geometry": { "type": "Point", "coordinates": [ 8.520661, 45.087083 ] } },
{ "type": "Feature", "properties": { "ID": "S00316", "Name": "GIAROLE", "RegionID": "3", "Region": "Piemonte", "Type": 3.0, "Latitude": 45.056125, "Longitude": 8.5609, "cityName": "A" }, "geometry": { "type": "Point", "coordinates": [ 8.5609, 45.056125 ] } },
{ "type": "Feature", "properties": { "ID": "S00332", "Name": "COZZO", "RegionID": "1", "Region": "Lombardia", "Type": 3.0, "Latitude": 45.182989, "Longitude": 8.603292, "cityName": "A" }, "geometry": { "type": "Point", "coordinates": [ 8.603292, 45.182989 ] } },
{ "type": "Feature", "properties": { "ID": "S00333", "Name": "CANDIA LOMELLINA", "RegionID": "1", "Region": "Lombardia", "Type": 3.0, "Latitude": 45.179911, "Longitude": 8.593156, "cityName": "A" }, "geometry": { "type": "Point", "coordinates": [ 8.593156, 45.179911 ] } },
{ "type": "Feature", "properties": { "ID": "S00336", "Name": "S.GIORGIO CASALE", "RegionID": "3", "Region": "Piemonte", "Type": 3.0, "Latitude": 45.101495, "Longitude": 8.412858, "cityName": "A" }, "geometry": { "type": "Point", "coordinates": [ 8.412858, 45.101495 ] } },
{ "type": "Feature", "properties": { "ID": "S00337", "Name": "OZZANO MONFERRATO", "RegionID": "3", "Region": "Piemonte", "Type": 3.0, "Latitude": 45.107581, "Longitude": 8.372296, "cityName": "A" }, "geometry": { "type": "Point", "coordinates": [ 8.372296, 45.107581 ] } },
{ "type": "Feature", "properties": { "ID": "S00338", "Name": "SERRALUNGA CERESETO", "RegionID": "3", "Region": "Piemonte", "Type": 3.0, "Latitude": 45.100914, "Longitude": 8.30742, "cityName": "A" }, "geometry": { "type": "Point", "coordinates": [ 8.30742, 45.100914 ] } },
{ "type": "Feature", "properties": { "ID": "S00340", "Name": "MONCALVO", "RegionID": "3", "Region": "Piemonte", "Type": 3.0, "Latitude": 45.059463, "Longitude": 8.261905, "cityName": "A" }, "geometry": { "type": "Point", "coordinates": [ 8.261905, 45.059463 ] } },
{ "type": "Feature", "properties": { "ID": "S00341", "Name": "PENANGO", "RegionID": "3", "Region": "Piemonte", "Type": 3.0, "Latitude": 45.032254, "Longitude": 8.235138, "cityName": "A" }, "geometry": { "type": "Point", "coordinates": [ 8.235138, 45.032254 ] } },
{ "type": "Feature", "properties": { "ID": "S00342", "Name": "TONCO ALFIANO", "RegionID": "3", "Region": "Piemonte", "Type": 3.0, "Latitude": 45.012659, "Longitude": 8.216858, "cityName": "A" }, "geometry": { "type": "Point", "coordinates": [ 8.216858, 45.012659 ] } },
{ "type": "Feature", "properties": { "ID": "S00343", "Name": "CASTELL`ALFERO", "RegionID": "3", "Region": "Piemonte", "Type": 3.0, "Latitude": 44.986347, "Longitude": 8.220882, "cityName": "A" }, "geometry": { "type": "Point", "coordinates": [ 8.220882, 44.986347 ] } },
{ "type": "Feature", "properties": { "ID": "S00344", "Name": "PORTACOMARO", "RegionID": "3", "Region": "Piemonte", "Type": 3.0, "Latitude": 44.957169, "Longitude": 8.224345, "cityName": "A" }, "geometry": { "type": "Point", "coordinates": [ 8.224345, 44.957169 ] } },
{ "type": "Feature", "properties": { "ID": "S00347", "Name": "ISOLA D`ASTI", "RegionID": "3", "Region": "Piemonte", "Type": 3.0, "Latitude": 44.830605, "Longitude": 8.175113, "cityName": "A" }, "geometry": { "type": "Point", "coordinates": [ 8.175113, 44.830605 ] } },
{ "type": "Feature", "properties": { "ID": "S00348", "Name": "COSTIGLIOLE (MOTTA DI)", "RegionID": "3", "Region": "Piemonte", "Type": 3.0, "Latitude": 44.807559, "Longitude": 8.145712, "cityName": "A" }, "geometry": { "type": "Point", "coordinates": [ 8.145712, 44.807559 ] } },
{ "type": "Feature", "properties": { "ID": "S00400", "Name": "SAIRANO ZINASCO", "RegionID": "1", "Region": "Lombardia", "Type": 3.0, "Latitude": 45.133795, "Longitude": 9.030153, "cityName": "A" }, "geometry": { "type": "Point", "coordinates": [ 9.030153, 45.133795 ] } },
{ "type": "Feature", "properties": { "ID": "S00401", "Name": "ZINASCO NUOVO", "RegionID": "1", "Region": "Lombardia", "Type": 3.0, "Latitude": 45.124555, "Longitude": 8.999657, "cityName": "A" }, "geometry": { "type": "Point", "coordinates": [ 8.999657, 45.124555 ] } },
{ "type": "Feature", "properties": { "ID": "S00402", "Name": "PIEVE ALBIGNOLA", "RegionID": "1", "Region": "Lombardia", "Type": 3.0, "Latitude": 45.116248, "Longitude": 8.959723, "cityName": "A" }, "geometry": { "type": "Point", "coordinates": [ 8.959723, 45.116248 ] } },
{ "type": "Feature", "properties": { "ID": "S00403", "Name": "SANNAZZARO", "RegionID": "1", "Region": "Lombardia", "Type": 3.0, "Latitude": 45.10554, "Longitude": 8.905149, "cityName": "A" }, "geometry": { "type": "Point", "coordinates": [ 8.905149, 45.10554 ] } },
{ "type": "Feature", "properties": { "ID": "S00404", "Name": "FERRERA LOMELLINA", "RegionID": "1", "Region": "Lombardia", "Type": 3.0, "Latitude": 45.111807, "Longitude": 8.862805, "cityName": "A" }, "geometry": { "type": "Point", "coordinates": [ 8.862805, 45.111807 ] } },
{ "type": "Feature", "properties": { "ID": "S00405", "Name": "LOMELLO", "RegionID": "1", "Region": "Lombardia", "Type": 3.0, "Latitude": 45.117276, "Longitude": 8.799121, "cityName": "A" }, "geometry": { "type": "Point", "coordinates": [ 8.799121, 45.117276 ] } },
{ "type": "Feature", "properties": { "ID": "S00406", "Name": "MEDE", "RegionID": "1", "Region": "Lombardia", "Type": 3.0, "Latitude": 45.095009, "Longitude": 8.742594, "cityName": "A" }, "geometry": { "type": "Point", "coordinates": [ 8.742594, 45.095009 ] } },
{ "type": "Feature", "properties": { "ID": "S00408", "Name": "SAIRANO", "RegionID": "1", "Region": "Lombardia", "Type": 3.0, "Latitude": 45.138858, "Longitude": 9.046868, "cityName": "A" }, "geometry": { "type": "Point", "coordinates": [ 9.046868, 45.138858 ] } },
{ "type": "Feature", "properties": { "ID": "S00420", "Name": "S.SEBASTIANO PO", "RegionID": "3", "Region": "Piemonte", "Type": 3.0, "Latitude": 45.167102, "Longitude": 7.953781, "cityName": "A" }, "geometry": { "type": "Point", "coordinates": [ 7.953781, 45.167102 ] } },
{ "type": "Feature", "properties": { "ID": "S00421", "Name": "LAURIANO", "RegionID": "3", "Region": "Piemonte", "Type": 3.0, "Latitude": 45.160761, "Longitude": 7.998531, "cityName": "A" }, "geometry": { "type": "Point", "coordinates": [ 7.998531, 45.160761 ] } },
{ "type": "Feature", "properties": { "ID": "S00422", "Name": "MONTEU DA PO", "RegionID": "3", "Region": "Piemonte", "Type": 3.0, "Latitude": 45.158353, "Longitude": 8.022925, "cityName": "A" }, "geometry": { "type": "Point", "coordinates": [ 8.022925, 45.158353 ] } },
{ "type": "Feature", "properties": { "ID": "S00423", "Name": "CAVAGNOLO BRUSASCO", "RegionID": "3", "Region": "Piemonte", "Type": 3.0, "Latitude": 45.153655, "Longitude": 8.047534, "cityName": "A" }, "geometry": { "type": "Point", "coordinates": [ 8.047534, 45.153655 ] } },
{ "type": "Feature", "properties": { "ID": "S00424", "Name": "BROZOLO", "RegionID": "3", "Region": "Piemonte", "Type": 3.0, "Latitude": 45.121299, "Longitude": 8.05893, "cityName": "A" }, "geometry": { "type": "Point", "coordinates": [ 8.05893, 45.121299 ] } },
{ "type": "Feature", "properties": { "ID": "S00425", "Name": "COCCONATO", "RegionID": "3", "Region": "Piemonte", "Type": 3.0, "Latitude": 45.082926, "Longitude": 8.070145, "cityName": "A" }, "geometry": { "type": "Point", "coordinates": [ 8.070145, 45.082926 ] } },
{ "type": "Feature", "properties": { "ID": "S00426", "Name": "MONTIGLIO MURISENGO", "RegionID": "3", "Region": "Piemonte", "Type": 3.0, "Latitude": 45.067664, "Longitude": 8.106913, "cityName": "A" }, "geometry": { "type": "Point", "coordinates": [ 8.106913, 45.067664 ] } },
{ "type": "Feature", "properties": { "ID": "S00427", "Name": "CUNICO SCANDELUZZA", "RegionID": "3", "Region": "Piemonte", "Type": 3.0, "Latitude": 45.036947, "Longitude": 8.11007, "cityName": "A" }, "geometry": { "type": "Point", "coordinates": [ 8.11007, 45.036947 ] } },
{ "type": "Feature", "properties": { "ID": "S00428", "Name": "MONTECHIARO D`ASTI", "RegionID": "3", "Region": "Piemonte", "Type": 3.0, "Latitude": 44.999849, "Longitude": 8.10982, "cityName": "A" }, "geometry": { "type": "Point", "coordinates": [ 8.10982, 44.999849 ] } },
{ "type": "Feature", "properties": { "ID": "S00429", "Name": "CHIUSANO COSSOMBRONE", "RegionID": "3", "Region": "Piemonte", "Type": 3.0, "Latitude": 44.985034, "Longitude": 8.128822, "cityName": "A" }, "geometry": { "type": "Point", "coordinates": [ 8.128822, 44.985034 ] } },
{ "type": "Feature", "properties": { "ID": "S00430", "Name": "SETTIME CINAGLIO MOMBARONE", "RegionID": "3", "Region": "Piemonte", "Type": 3.0, "Latitude": 44.966229, "Longitude": 8.128853, "cityName": "A" }, "geometry": { "type": "Point", "coordinates": [ 8.128853, 44.966229 ] } },
{ "type": "Feature", "properties": { "ID": "S00431", "Name": "SERRAVALLE D`ASTI", "RegionID": "3", "Region": "Piemonte", "Type": 3.0, "Latitude": 44.948019, "Longitude": 8.14808, "cityName": "A" }, "geometry": { "type": "Point", "coordinates": [ 8.14808, 44.948019 ] } },
{ "type": "Feature", "properties": { "ID": "S00434", "Name": "S.ANNA ROBELLA", "RegionID": "3", "Region": "Piemonte", "Type": 3.0, "Latitude": 45.074464, "Longitude": 8.08568, "cityName": "A" }, "geometry": { "type": "Point", "coordinates": [ 8.08568, 45.074464 ] } },
{ "type": "Feature", "properties": { "ID": "S00452", "Name": "TORINO LINGOTTO", "RegionID": "3", "Region": "Piemonte", "Type": 3.0, "Latitude": 45.0266, "Longitude": 7.657469, "cityName": "A" }, "geometry": { "type": "Point", "coordinates": [ 7.657469, 45.0266 ] } },
{ "type": "Feature", "properties": { "ID": "S00453", "Name": "MONCALIERI", "RegionID": "3", "Region": "Piemonte", "Type": 3.0, "Latitude": 44.998187, "Longitude": 7.678027, "cityName": "A" }, "geometry": { "type": "Point", "coordinates": [ 7.678027, 44.998187 ] } },
{ "type": "Feature", "properties": { "ID": "S00455", "Name": "TROFARELLO", "RegionID": "3", "Region": "Piemonte", "Type": 3.0, "Latitude": 44.980471, "Longitude": 7.735206, "cityName": "Trofarello" }, "geometry": { "type": "Point", "coordinates": [ 7.735206, 44.980471 ] } },
{ "type": "Feature", "properties": { "ID": "S00456", "Name": "CAMBIANO SANTENA", "RegionID": "3", "Region": "Piemonte", "Type": 3.0, "Latitude": 44.966491, "Longitude": 7.773225, "cityName": "A" }, "geometry": { "type": "Point", "coordinates": [ 7.773225, 44.966491 ] } },
{ "type": "Feature", "properties": { "ID": "S00457", "Name": "PESSIONE", "RegionID": "3", "Region": "Piemonte", "Type": 3.0, "Latitude": 44.965132, "Longitude": 7.841321, "cityName": "A" }, "geometry": { "type": "Point", "coordinates": [ 7.841321, 44.965132 ] } },
{ "type": "Feature", "properties": { "ID": "S00458", "Name": "VILLANOVA", "RegionID": "3", "Region": "Piemonte", "Type": 3.0, "Latitude": 44.963159, "Longitude": 7.947136, "cityName": "A" }, "geometry": { "type": "Point", "coordinates": [ 7.947136, 44.963159 ] } },
{ "type": "Feature", "properties": { "ID": "S00459", "Name": "VILLAFRANCA C.", "RegionID": "3", "Region": "Piemonte", "Type": 3.0, "Latitude": 44.908916, "Longitude": 8.043692, "cityName": "A" }, "geometry": { "type": "Point", "coordinates": [ 8.043692, 44.908916 ] } },
{ "type": "Feature", "properties": { "ID": "S00460", "Name": "BALDICHIERI", "RegionID": "3", "Region": "Piemonte", "Type": 3.0, "Latitude": 44.899204, "Longitude": 8.091198, "cityName": "A" }, "geometry": { "type": "Point", "coordinates": [ 8.091198, 44.899204 ] } },
{ "type": "Feature", "properties": { "ID": "S00461", "Name": "S. DAMIANO D`ASTI", "RegionID": "3", "Region": "Piemonte", "Type": 3.0, "Latitude": 44.878914, "Longitude": 8.125956, "cityName": "A" }, "geometry": { "type": "Point", "coordinates": [ 8.125956, 44.878914 ] } },
{ "type": "Feature", "properties": { "ID": "S00462", "Name": "ASTI", "RegionID": "3", "Region": "Piemonte", "Type": 3.0, "Latitude": 44.89479, "Longitude": 8.208112, "cityName": "Asti" }, "geometry": { "type": "Point", "coordinates": [ 8.208112, 44.89479 ] } },
{ "type": "Feature", "properties": { "ID": "S00463", "Name": "S. PAOLO SOLBRITO", "RegionID": "3", "Region": "Piemonte", "Type": 3.0, "Latitude": 44.951753, "Longitude": 7.975779, "cityName": "A" }, "geometry": { "type": "Point", "coordinates": [ 7.975779, 44.951753 ] } },
{ "type": "Feature", "properties": { "ID": "S00465", "Name": "CASTELLO D`ANNONE", "RegionID": "3", "Region": "Piemonte", "Type": 3.0, "Latitude": 44.878742, "Longitude": 8.312724, "cityName": "A" }, "geometry": { "type": "Point", "coordinates": [ 8.312724, 44.878742 ] } },
{ "type": "Feature", "properties": { "ID": "S00466", "Name": "ROCCHETTA TANARO CERRO", "RegionID": "3", "Region": "Piemonte", "Type": 3.0, "Latitude": 44.875574, "Longitude": 8.351402, "cityName": "A" }, "geometry": { "type": "Point", "coordinates": [ 8.351402, 44.875574 ] } },
{ "type": "Feature", "properties": { "ID": "S00468", "Name": "FELIZZANO", "RegionID": "3", "Region": "Piemonte", "Type": 3.0, "Latitude": 44.893367, "Longitude": 8.437155, "cityName": "A" }, "geometry": { "type": "Point", "coordinates": [ 8.437155, 44.893367 ] } },
{ "type": "Feature", "properties": { "ID": "S00469", "Name": "SOLERO", "RegionID": "3", "Region": "Piemonte", "Type": 3.0, "Latitude": 44.915886, "Longitude": 8.51043, "cityName": "A" }, "geometry": { "type": "Point", "coordinates": [ 8.51043, 44.915886 ] } },
{ "type": "Feature", "properties": { "ID": "S00470", "Name": "ALESSANDRIA", "RegionID": "3", "Region": "Piemonte", "Type": 3.0, "Latitude": 44.909091, "Longitude": 8.606498, "cityName": "Alessandria" }, "geometry": { "type": "Point", "coordinates": [ 8.606498, 44.909091 ] } },
{ "type": "Feature", "properties": { "ID": "S00500", "Name": "CHIERI", "RegionID": "3", "Region": "Piemonte", "Type": 3.0, "Latitude": 45.007008, "Longitude": 7.827077, "cityName": "Chieri" }, "geometry": { "type": "Point", "coordinates": [ 7.827077, 45.007008 ] } },
{ "type": "Feature", "properties": { "ID": "S00501", "Name": "MADONNA DELLA SCALA", "RegionID": "3", "Region": "Piemonte", "Type": 3.0, "Latitude": 44.993686, "Longitude": 7.780994, "cityName": "A" }, "geometry": { "type": "Point", "coordinates": [ 7.780994, 44.993686 ] } },
{ "type": "Feature", "properties": { "ID": "S00510", "Name": "MONCALIERI SANGONE", "RegionID": "3", "Region": "Piemonte", "Type": 3.0, "Latitude": 45.000393, "Longitude": 7.667991, "cityName": "A" }, "geometry": { "type": "Point", "coordinates": [ 7.667991, 45.000393 ] } },
{ "type": "Feature", "properties": { "ID": "S00511", "Name": "NICHELINO", "RegionID": "3", "Region": "Piemonte", "Type": 3.0, "Latitude": 44.99132, "Longitude": 7.642068, "cityName": "A" }, "geometry": { "type": "Point", "coordinates": [ 7.642068, 44.99132 ] } },
{ "type": "Feature", "properties": { "ID": "S00512", "Name": "CANDIOLO", "RegionID": "3", "Region": "Piemonte", "Type": 3.0, "Latitude": 44.961155, "Longitude": 7.598973, "cityName": "A" }, "geometry": { "type": "Point", "coordinates": [ 7.598973, 44.961155 ] } },
{ "type": "Feature", "properties": { "ID": "S00513", "Name": "NONE", "RegionID": "3", "Region": "Piemonte", "Type": 3.0, "Latitude": 44.938011, "Longitude": 7.540068, "cityName": "A" }, "geometry": { "type": "Point", "coordinates": [ 7.540068, 44.938011 ] } },
{ "type": "Feature", "properties": { "ID": "S00514", "Name": "AIRASCA", "RegionID": "3", "Region": "Piemonte", "Type": 3.0, "Latitude": 44.928093, "Longitude": 7.483536, "cityName": "A" }, "geometry": { "type": "Point", "coordinates": [ 7.483536, 44.928093 ] } },
{ "type": "Feature", "properties": { "ID": "S00515", "Name": "PISCINA DI PINEROLO", "RegionID": "3", "Region": "Piemonte", "Type": 3.0, "Latitude": 44.921744, "Longitude": 7.425482, "cityName": "A" }, "geometry": { "type": "Point", "coordinates": [ 7.425482, 44.921744 ] } },
{ "type": "Feature", "properties": { "ID": "S00517", "Name": "PINEROLO", "RegionID": "3", "Region": "Piemonte", "Type": 3.0, "Latitude": 44.887673, "Longitude": 7.337402, "cityName": "Pinerolo" }, "geometry": { "type": "Point", "coordinates": [ 7.337402, 44.887673 ] } },
{ "type": "Feature", "properties": { "ID": "S00521", "Name": "BRICHERASIO", "RegionID": "3", "Region": "Piemonte", "Type": 3.0, "Latitude": 44.824336, "Longitude": 7.307513, "cityName": "A" }, "geometry": { "type": "Point", "coordinates": [ 7.307513, 44.824336 ] } },
{ "type": "Feature", "properties": { "ID": "S00522", "Name": "BIBIANA", "RegionID": "3", "Region": "Piemonte", "Type": 3.0, "Latitude": 44.809941, "Longitude": 7.285727, "cityName": "A" }, "geometry": { "type": "Point", "coordinates": [ 7.285727, 44.809941 ] } },
{ "type": "Feature", "properties": { "ID": "S00523", "Name": "LUSERNA S. GIOVANNI", "RegionID": "3", "Region": "Piemonte", "Type": 3.0, "Latitude": 44.815842, "Longitude": 7.246902, "cityName": "A" }, "geometry": { "type": "Point", "coordinates": [ 7.246902, 44.815842 ] } },
{ "type": "Feature", "properties": { "ID": "S00524", "Name": "TORRE PELLICE", "RegionID": "3", "Region": "Piemonte", "Type": 3.0, "Latitude": 44.818929, "Longitude": 7.225901, "cityName": "A" }, "geometry": { "type": "Point", "coordinates": [ 7.225901, 44.818929 ] } },
{ "type": "Feature", "properties": { "ID": "S00540", "Name": "SCALENGHE", "RegionID": "3", "Region": "Piemonte", "Type": 3.0, "Latitude": 44.89018, "Longitude": 7.490745, "cityName": "A" }, "geometry": { "type": "Point", "coordinates": [ 7.490745, 44.89018 ] } },
{ "type": "Feature", "properties": { "ID": "S00541", "Name": "CERCENASCO", "RegionID": "3", "Region": "Piemonte", "Type": 3.0, "Latitude": 44.864897, "Longitude": 7.495302, "cityName": "A" }, "geometry": { "type": "Point", "coordinates": [ 7.495302, 44.864897 ] } },
{ "type": "Feature", "properties": { "ID": "S00542", "Name": "VIGONE", "RegionID": "3", "Region": "Piemonte", "Type": 3.0, "Latitude": 44.846923, "Longitude": 7.491123, "cityName": "A" }, "geometry": { "type": "Point", "coordinates": [ 7.491123, 44.846923 ] } },
{ "type": "Feature", "properties": { "ID": "S00543", "Name": "VILLAFRANCA P.", "RegionID": "3", "Region": "Piemonte", "Type": 3.0, "Latitude": 44.786739, "Longitude": 7.510077, "cityName": "A" }, "geometry": { "type": "Point", "coordinates": [ 7.510077, 44.786739 ] } },
{ "type": "Feature", "properties": { "ID": "S00544", "Name": "MORETTA", "RegionID": "3", "Region": "Piemonte", "Type": 3.0, "Latitude": 44.765514, "Longitude": 7.530303, "cityName": "A" }, "geometry": { "type": "Point", "coordinates": [ 7.530303, 44.765514 ] } },
{ "type": "Feature", "properties": { "ID": "S00545", "Name": "TORRE S.GIORGIO", "RegionID": "3", "Region": "Piemonte", "Type": 3.0, "Latitude": 44.737375, "Longitude": 7.525461, "cityName": "A" }, "geometry": { "type": "Point", "coordinates": [ 7.525461, 44.737375 ] } },
{ "type": "Feature", "properties": { "ID": "S00546", "Name": "CERVIGNASCO", "RegionID": "3", "Region": "Piemonte", "Type": 3.0, "Latitude": 44.699669, "Longitude": 7.518644, "cityName": "A" }, "geometry": { "type": "Point", "coordinates": [ 7.518644, 44.699669 ] } },
{ "type": "Feature", "properties": { "ID": "S00547", "Name": "SALUZZO", "RegionID": "", "Region": "N.D.", "Type": null, "Latitude": null, "Longitude": null, "cityName": null }, "geometry": null },
{ "type": "Feature", "properties": { "ID": "S00600", "Name": "VILLASTELLONE", "RegionID": "3", "Region": "Piemonte", "Type": 3.0, "Latitude": 44.920531, "Longitude": 7.749572, "cityName": "A" }, "geometry": { "type": "Point", "coordinates": [ 7.749572, 44.920531 ] } },
{ "type": "Feature", "properties": { "ID": "S00601", "Name": "CARMAGNOLA", "RegionID": "3", "Region": "Piemonte", "Type": 3.0, "Latitude": 44.846944, "Longitude": 7.72797, "cityName": "Carmagnola" }, "geometry": { "type": "Point", "coordinates": [ 7.72797, 44.846944 ] } },
{ "type": "Feature", "properties": { "ID": "S00602", "Name": "RACCONIGI", "RegionID": "3", "Region": "Piemonte", "Type": 3.0, "Latitude": 44.771179, "Longitude": 7.685681, "cityName": "A" }, "geometry": { "type": "Point", "coordinates": [ 7.685681, 44.771179 ] } },
{ "type": "Feature", "properties": { "ID": "S00603", "Name": "CAVALLERMAGGIORE", "RegionID": "3", "Region": "Piemonte", "Type": 3.0, "Latitude": 44.708147, "Longitude": 7.692108, "cityName": "Cavallermaggiore" }, "geometry": { "type": "Point", "coordinates": [ 7.692108, 44.708147 ] } },
{ "type": "Feature", "properties": { "ID": "S00604", "Name": "SAVIGLIANO", "RegionID": "3", "Region": "Piemonte", "Type": 3.0, "Latitude": 44.651337, "Longitude": 7.663748, "cityName": "Savigliano" }, "geometry": { "type": "Point", "coordinates": [ 7.663748, 44.651337 ] } },
{ "type": "Feature", "properties": { "ID": "S00606", "Name": "FOSSANO", "RegionID": "3", "Region": "Piemonte", "Type": 3.0, "Latitude": 44.550231, "Longitude": 7.717971, "cityName": "Fossano" }, "geometry": { "type": "Point", "coordinates": [ 7.717971, 44.550231 ] } },
{ "type": "Feature", "properties": { "ID": "S00607", "Name": "MADDALENE", "RegionID": "3", "Region": "Piemonte", "Type": 3.0, "Latitude": 44.518734, "Longitude": 7.648022, "cityName": "A" }, "geometry": { "type": "Point", "coordinates": [ 7.648022, 44.518734 ] } },
{ "type": "Feature", "properties": { "ID": "S00608", "Name": "CENTALLO", "RegionID": "3", "Region": "Piemonte", "Type": 3.0, "Latitude": 44.496223, "Longitude": 7.591035, "cityName": "A" }, "geometry": { "type": "Point", "coordinates": [ 7.591035, 44.496223 ] } },
{ "type": "Feature", "properties": { "ID": "S00609", "Name": "S.BENIGNO DI CUNEO", "RegionID": "3", "Region": "Piemonte", "Type": 3.0, "Latitude": 44.461002, "Longitude": 7.572712, "cityName": "A" }, "geometry": { "type": "Point", "coordinates": [ 7.572712, 44.461002 ] } },
{ "type": "Feature", "properties": { "ID": "S00610", "Name": "CUNEO", "RegionID": "3", "Region": "Piemonte", "Type": 3.0, "Latitude": 44.387914, "Longitude": 7.536235, "cityName": "Cuneo" }, "geometry": { "type": "Point", "coordinates": [ 7.536235, 44.387914 ] } },
{ "type": "Feature", "properties": { "ID": "S00611", "Name": "CUNEO GESSO", "RegionID": "3", "Region": "Piemonte", "Type": 3.0, "Latitude": 44.394234, "Longitude": 7.556017, "cityName": "Cuneo Gesso" }, "geometry": { "type": "Point", "coordinates": [ 7.556017, 44.394234 ] } },
{ "type": "Feature", "properties": { "ID": "S00613", "Name": "BORGO SAN DALMAZZO", "RegionID": "3", "Region": "Piemonte", "Type": 3.0, "Latitude": 44.326249, "Longitude": 7.486111, "cityName": "A" }, "geometry": { "type": "Point", "coordinates": [ 7.486111, 44.326249 ] } },
{ "type": "Feature", "properties": { "ID": "S00614", "Name": "ROCCAVIONE", "RegionID": "3", "Region": "Piemonte", "Type": 3.0, "Latitude": 44.314445, "Longitude": 7.485361, "cityName": "A" }, "geometry": { "type": "Point", "coordinates": [ 7.485361, 44.314445 ] } },
{ "type": "Feature", "properties": { "ID": "S00615", "Name": "ROBILANTE", "RegionID": "3", "Region": "Piemonte", "Type": 3.0, "Latitude": 44.296496, "Longitude": 7.510906, "cityName": "A" }, "geometry": { "type": "Point", "coordinates": [ 7.510906, 44.296496 ] } },
{ "type": "Feature", "properties": { "ID": "S00616", "Name": "VERNANTE", "RegionID": "3", "Region": "Piemonte", "Type": 3.0, "Latitude": 44.244639, "Longitude": 7.535986, "cityName": "A" }, "geometry": { "type": "Point", "coordinates": [ 7.535986, 44.244639 ] } },
{ "type": "Feature", "properties": { "ID": "S00617", "Name": "LIMONE", "RegionID": "3", "Region": "Piemonte", "Type": 3.0, "Latitude": 44.203799, "Longitude": 7.577912, "cityName": "A" }, "geometry": { "type": "Point", "coordinates": [ 7.577912, 44.203799 ] } },
{ "type": "Feature", "properties": { "ID": "S00618", "Name": "VIEVOLA", "RegionID": "", "Region": "N.D.", "Type": null, "Latitude": null, "Longitude": null, "cityName": null }, "geometry": null },
{ "type": "Feature", "properties": { "ID": "S00619", "Name": "TENDE", "RegionID": "", "Region": "N.D.", "Type": null, "Latitude": null, "Longitude": null, "cityName": null }, "geometry": null },
{ "type": "Feature", "properties": { "ID": "S00620", "Name": "ST.DALMAS DE TENDE", "RegionID": "", "Region": "N.D.", "Type": null, "Latitude": null, "Longitude": null, "cityName": null }, "geometry": null },
{ "type": "Feature", "properties": { "ID": "S00621", "Name": "FONTAN SAORGE", "RegionID": "", "Region": "N.D.", "Type": null, "Latitude": null, "Longitude": null, "cityName": null }, "geometry": null },
{ "type": "Feature", "properties": { "ID": "S00622", "Name": "BREIL SUR ROYA", "RegionID": "3", "Region": "Piemonte", "Type": 3.0, "Latitude": 43.890267, "Longitude": 7.530915, "cityName": "Breil" }, "geometry": { "type": "Point", "coordinates": [ 7.530915, 43.890267 ] } },
{ "type": "Feature", "properties": { "ID": "S00634", "Name": "LA BRIGUE", "RegionID": "", "Region": "N.D.", "Type": null, "Latitude": null, "Longitude": null, "cityName": null }, "geometry": null },
{ "type": "Feature", "properties": { "ID": "S00700", "Name": "MANTA", "RegionID": "3", "Region": "Piemonte", "Type": 3.0, "Latitude": 44.620887, "Longitude": 7.494166, "cityName": "A" }, "geometry": { "type": "Point", "coordinates": [ 7.494166, 44.620887 ] } },
{ "type": "Feature", "properties": { "ID": "S00701", "Name": "VERZUOLO", "RegionID": "3", "Region": "Piemonte", "Type": 3.0, "Latitude": 44.598767, "Longitude": 7.48724, "cityName": "A" }, "geometry": { "type": "Point", "coordinates": [ 7.48724, 44.598767 ] } },
{ "type": "Feature", "properties": { "ID": "S00702", "Name": "COSTIGLIOLE SALUZZO", "RegionID": "3", "Region": "Piemonte", "Type": 3.0, "Latitude": 44.570196, "Longitude": 7.482075, "cityName": "A" }, "geometry": { "type": "Point", "coordinates": [ 7.482075, 44.570196 ] } },
{ "type": "Feature", "properties": { "ID": "S00704", "Name": "BUSCA", "RegionID": "3", "Region": "Piemonte", "Type": 3.0, "Latitude": 44.520585, "Longitude": 7.481589, "cityName": "A" }, "geometry": { "type": "Point", "coordinates": [ 7.481589, 44.520585 ] } },
{ "type": "Feature", "properties": { "ID": "S00720", "Name": "CASTELLETTO BUSCA", "RegionID": "3", "Region": "Piemonte", "Type": 3.0, "Latitude": 44.501319, "Longitude": 7.463939, "cityName": "A" }, "geometry": { "type": "Point", "coordinates": [ 7.463939, 44.501319 ] } },
{ "type": "Feature", "properties": { "ID": "S00721", "Name": "MONASTERO PRATAVECCHI", "RegionID": "3", "Region": "Piemonte", "Type": 3.0, "Latitude": 44.484517, "Longitude": 7.44679, "cityName": "A" }, "geometry": { "type": "Point", "coordinates": [ 7.44679, 44.484517 ] } },
{ "type": "Feature", "properties": { "ID": "S00722", "Name": "DRONERO", "RegionID": "3", "Region": "Piemonte", "Type": 3.0, "Latitude": 44.464974, "Longitude": 7.423245, "cityName": "A" }, "geometry": { "type": "Point", "coordinates": [ 7.423245, 44.464974 ] } },
{ "type": "Feature", "properties": { "ID": "S00730", "Name": "SOMMARIVA BOSCO", "RegionID": "3", "Region": "Piemonte", "Type": 3.0, "Latitude": 44.770754, "Longitude": 7.777086, "cityName": "A" }, "geometry": { "type": "Point", "coordinates": [ 7.777086, 44.770754 ] } },
{ "type": "Feature", "properties": { "ID": "S00731", "Name": "SANFRE`", "RegionID": "3", "Region": "Piemonte", "Type": 3.0, "Latitude": 44.74799, "Longitude": 7.796793, "cityName": "A" }, "geometry": { "type": "Point", "coordinates": [ 7.796793, 44.74799 ] } },
{ "type": "Feature", "properties": { "ID": "S00732", "Name": "BANDITO", "RegionID": "3", "Region": "Piemonte", "Type": 3.0, "Latitude": 44.722075, "Longitude": 7.819452, "cityName": "A" }, "geometry": { "type": "Point", "coordinates": [ 7.819452, 44.722075 ] } },
{ "type": "Feature", "properties": { "ID": "S00733", "Name": "CHERASCO", "RegionID": "3", "Region": "Piemonte", "Type": 3.0, "Latitude": 44.65261, "Longitude": 7.867211, "cityName": "A" }, "geometry": { "type": "Point", "coordinates": [ 7.867211, 44.65261 ] } },
{ "type": "Feature", "properties": { "ID": "S00734", "Name": "NARZOLE", "RegionID": "3", "Region": "Piemonte", "Type": 3.0, "Latitude": 44.598377, "Longitude": 7.881597, "cityName": "A" }, "geometry": { "type": "Point", "coordinates": [ 7.881597, 44.598377 ] } },
{ "type": "Feature", "properties": { "ID": "S00735", "Name": "MONCHIERO DOGLIANI", "RegionID": "3", "Region": "Piemonte", "Type": 3.0, "Latitude": 44.571815, "Longitude": 7.917635, "cityName": "A" }, "geometry": { "type": "Point", "coordinates": [ 7.917635, 44.571815 ] } },
{ "type": "Feature", "properties": { "ID": "S00737", "Name": "FARIGLIANO", "RegionID": "3", "Region": "Piemonte", "Type": 3.0, "Latitude": 44.513337, "Longitude": 7.90947, "cityName": "A" }, "geometry": { "type": "Point", "coordinates": [ 7.90947, 44.513337 ] } },
{ "type": "Feature", "properties": { "ID": "S00738", "Name": "CARRU` CLAVESANA", "RegionID": "3", "Region": "Piemonte", "Type": 3.0, "Latitude": 44.479548, "Longitude": 7.891414, "cityName": "A" }, "geometry": { "type": "Point", "coordinates": [ 7.891414, 44.479548 ] } },
{ "type": "Feature", "properties": { "ID": "S00739", "Name": "NIELLA", "RegionID": "3", "Region": "Piemonte", "Type": 3.0, "Latitude": 44.415377, "Longitude": 7.926365, "cityName": "A" }, "geometry": { "type": "Point", "coordinates": [ 7.926365, 44.415377 ] } },
{ "type": "Feature", "properties": { "ID": "S00740", "Name": "ROCCACIGLIE`", "RegionID": "3", "Region": "Piemonte", "Type": 3.0, "Latitude": 44.425831, "Longitude": 7.95274, "cityName": "A" }, "geometry": { "type": "Point", "coordinates": [ 7.95274, 44.425831 ] } },
{ "type": "Feature", "properties": { "ID": "S00741", "Name": "CASTELLINO TANARO", "RegionID": "3", "Region": "Piemonte", "Type": 3.0, "Latitude": 44.41657, "Longitude": 7.974321, "cityName": "A" }, "geometry": { "type": "Point", "coordinates": [ 7.974321, 44.41657 ] } },
{ "type": "Feature", "properties": { "ID": "S00742", "Name": "CEVA", "RegionID": "3", "Region": "Piemonte", "Type": 3.0, "Latitude": 44.389861, "Longitude": 8.031958, "cityName": "Ceva" }, "geometry": { "type": "Point", "coordinates": [ 8.031958, 44.389861 ] } },
{ "type": "Feature", "properties": { "ID": "S00743", "Name": "SALE LANGHE", "RegionID": "3", "Region": "Piemonte", "Type": 3.0, "Latitude": 44.392425, "Longitude": 8.077468, "cityName": "A" }, "geometry": { "type": "Point", "coordinates": [ 8.077468, 44.392425 ] } },
{ "type": "Feature", "properties": { "ID": "S00744", "Name": "SALICETO", "RegionID": "3", "Region": "Piemonte", "Type": 3.0, "Latitude": 44.404437, "Longitude": 8.172887, "cityName": "A" }, "geometry": { "type": "Point", "coordinates": [ 8.172887, 44.404437 ] } },
{ "type": "Feature", "properties": { "ID": "S00745", "Name": "CENGIO", "RegionID": "2", "Region": "Liguria", "Type": 3.0, "Latitude": 44.390798, "Longitude": 8.191824, "cityName": "A" }, "geometry": { "type": "Point", "coordinates": [ 8.191824, 44.390798 ] } },
{ "type": "Feature", "properties": { "ID": "S00750", "Name": "POSTOJNA", "RegionID": "", "Region": "N.D.", "Type": null, "Latitude": null, "Longitude": null, "cityName": null }, "geometry": null },
{ "type": "Feature", "properties": { "ID": "S00801", "Name": "MONGARDINO", "RegionID": "3", "Region": "Piemonte", "Type": 3.0, "Latitude": 44.84161, "Longitude": 8.207411, "cityName": "A" }, "geometry": { "type": "Point", "coordinates": [ 8.207411, 44.84161 ] } },
{ "type": "Feature", "properties": { "ID": "S00802", "Name": "VIGLIANO D`ASTI", "RegionID": "3", "Region": "Piemonte", "Type": 3.0, "Latitude": 44.827335, "Longitude": 8.218271, "cityName": "A" }, "geometry": { "type": "Point", "coordinates": [ 8.218271, 44.827335 ] } },
{ "type": "Feature", "properties": { "ID": "S00803", "Name": "MONTEGROSSO", "RegionID": "3", "Region": "Piemonte", "Type": 3.0, "Latitude": 44.818465, "Longitude": 8.239171, "cityName": "A" }, "geometry": { "type": "Point", "coordinates": [ 8.239171, 44.818465 ] } },
{ "type": "Feature", "properties": { "ID": "S00804", "Name": "AGLIANO CASTELNUOVO CALCEA", "RegionID": "3", "Region": "Piemonte", "Type": 3.0, "Latitude": 44.786108, "Longitude": 8.267723, "cityName": "A" }, "geometry": { "type": "Point", "coordinates": [ 8.267723, 44.786108 ] } },
{ "type": "Feature", "properties": { "ID": "S00807", "Name": "BAZZANA", "RegionID": "3", "Region": "Piemonte", "Type": 3.0, "Latitude": 44.777094, "Longitude": 8.401557, "cityName": "A" }, "geometry": { "type": "Point", "coordinates": [ 8.401557, 44.777094 ] } },
{ "type": "Feature", "properties": { "ID": "S00808", "Name": "MOMBARUZZO", "RegionID": "3", "Region": "Piemonte", "Type": 3.0, "Latitude": 44.76235, "Longitude": 8.441006, "cityName": "A" }, "geometry": { "type": "Point", "coordinates": [ 8.441006, 44.76235 ] } },
{ "type": "Feature", "properties": { "ID": "S00809", "Name": "ALICE BELCOLLE", "RegionID": "3", "Region": "Piemonte", "Type": 3.0, "Latitude": 44.722636, "Longitude": 8.440076, "cityName": "A" }, "geometry": { "type": "Point", "coordinates": [ 8.440076, 44.722636 ] } },
{ "type": "Feature", "properties": { "ID": "S00820", "Name": "MADONNA DEL PILONE", "RegionID": "3", "Region": "Piemonte", "Type": 3.0, "Latitude": 44.695347, "Longitude": 7.747639, "cityName": "A" }, "geometry": { "type": "Point", "coordinates": [ 7.747639, 44.695347 ] } },
{ "type": "Feature", "properties": { "ID": "S00821", "Name": "BRA", "RegionID": "3", "Region": "Piemonte", "Type": 3.0, "Latitude": 44.693556, "Longitude": 7.848643, "cityName": "Bra" }, "geometry": { "type": "Point", "coordinates": [ 7.848643, 44.693556 ] } },
{ "type": "Feature", "properties": { "ID": "S00822", "Name": "S.VITTORIA", "RegionID": "3", "Region": "Piemonte", "Type": 3.0, "Latitude": 44.69561, "Longitude": 7.916909, "cityName": "A" }, "geometry": { "type": "Point", "coordinates": [ 7.916909, 44.69561 ] } },
{ "type": "Feature", "properties": { "ID": "S00823", "Name": "MONTICELLO D`ALBA", "RegionID": "3", "Region": "Piemonte", "Type": 3.0, "Latitude": 44.703736, "Longitude": 7.965002, "cityName": "A" }, "geometry": { "type": "Point", "coordinates": [ 7.965002, 44.703736 ] } },
{ "type": "Feature", "properties": { "ID": "S00824", "Name": "MUSSOTTO", "RegionID": "3", "Region": "Piemonte", "Type": 3.0, "Latitude": 44.713227, "Longitude": 8.015194, "cityName": "A" }, "geometry": { "type": "Point", "coordinates": [ 8.015194, 44.713227 ] } },
{ "type": "Feature", "properties": { "ID": "S00825", "Name": "ALBA", "RegionID": "3", "Region": "Piemonte", "Type": 3.0, "Latitude": 44.697713, "Longitude": 8.030629, "cityName": "A" }, "geometry": { "type": "Point", "coordinates": [ 8.030629, 44.697713 ] } },
{ "type": "Feature", "properties": { "ID": "S00827", "Name": "NEIVE", "RegionID": "3", "Region": "Piemonte", "Type": 3.0, "Latitude": 44.723048, "Longitude": 8.121071, "cityName": "A" }, "geometry": { "type": "Point", "coordinates": [ 8.121071, 44.723048 ] } },
{ "type": "Feature", "properties": { "ID": "S00828", "Name": "CASTAGNOLE DELLE LANZE", "RegionID": "3", "Region": "Piemonte", "Type": 3.0, "Latitude": 44.749341, "Longitude": 8.152836, "cityName": "Castagnole L." }, "geometry": { "type": "Point", "coordinates": [ 8.152836, 44.749341 ] } },
{ "type": "Feature", "properties": { "ID": "S00829", "Name": "COSTIGLIOLE D`ASTI", "RegionID": "3", "Region": "Piemonte", "Type": 3.0, "Latitude": 44.754882, "Longitude": 8.20477, "cityName": "A" }, "geometry": { "type": "Point", "coordinates": [ 8.20477, 44.754882 ] } },
{ "type": "Feature", "properties": { "ID": "S00831", "Name": "S.STEFANO BELBO", "RegionID": "3", "Region": "Piemonte", "Type": 3.0, "Latitude": 44.71714, "Longitude": 8.241233, "cityName": "A" }, "geometry": { "type": "Point", "coordinates": [ 8.241233, 44.71714 ] } },
{ "type": "Feature", "properties": { "ID": "S00832", "Name": "CANELLI", "RegionID": "3", "Region": "Piemonte", "Type": 3.0, "Latitude": 44.716716, "Longitude": 8.294544, "cityName": "A" }, "geometry": { "type": "Point", "coordinates": [ 8.294544, 44.716716 ] } },
{ "type": "Feature", "properties": { "ID": "S00833", "Name": "CALAMANDRANA", "RegionID": "3", "Region": "Piemonte", "Type": 3.0, "Latitude": 44.738986, "Longitude": 8.331572, "cityName": "A" }, "geometry": { "type": "Point", "coordinates": [ 8.331572, 44.738986 ] } },
{ "type": "Feature", "properties": { "ID": "S00834", "Name": "NIZZA MONFERRATO", "RegionID": "3", "Region": "Piemonte", "Type": 3.0, "Latitude": 44.772905, "Longitude": 8.361146, "cityName": "Nizza" }, "geometry": { "type": "Point", "coordinates": [ 8.361146, 44.772905 ] } },
{ "type": "Feature", "properties": { "ID": "S00835", "Name": "INCISA SCAPACCINO", "RegionID": "3", "Region": "Piemonte", "Type": 3.0, "Latitude": 44.80052, "Longitude": 8.388468, "cityName": "A" }, "geometry": { "type": "Point", "coordinates": [ 8.388468, 44.80052 ] } },
{ "type": "Feature", "properties": { "ID": "S00836", "Name": "CASTELNUOVO BELBO", "RegionID": "3", "Region": "Piemonte", "Type": 3.0, "Latitude": 44.798127, "Longitude": 8.42516, "cityName": "A" }, "geometry": { "type": "Point", "coordinates": [ 8.42516, 44.798127 ] } },
{ "type": "Feature", "properties": { "ID": "S00837", "Name": "BRUNO", "RegionID": "3", "Region": "Piemonte", "Type": 3.0, "Latitude": 44.797947, "Longitude": 8.439639, "cityName": "A" }, "geometry": { "type": "Point", "coordinates": [ 8.439639, 44.797947 ] } },
{ "type": "Feature", "properties": { "ID": "S00838", "Name": "BERGAMASCO", "RegionID": "3", "Region": "Piemonte", "Type": 3.0, "Latitude": 44.819891, "Longitude": 8.461447, "cityName": "A" }, "geometry": { "type": "Point", "coordinates": [ 8.461447, 44.819891 ] } },
{ "type": "Feature", "properties": { "ID": "S00839", "Name": "CARENTINO", "RegionID": "3", "Region": "Piemonte", "Type": 3.0, "Latitude": 44.831303, "Longitude": 8.470474, "cityName": "A" }, "geometry": { "type": "Point", "coordinates": [ 8.470474, 44.831303 ] } },
{ "type": "Feature", "properties": { "ID": "S00840", "Name": "OVIGLIO", "RegionID": "3", "Region": "Piemonte", "Type": 3.0, "Latitude": 44.859537, "Longitude": 8.494998, "cityName": "A" }, "geometry": { "type": "Point", "coordinates": [ 8.494998, 44.859537 ] } },
{ "type": "Feature", "properties": { "ID": "S00842", "Name": "POCAPAGLIA", "RegionID": "3", "Region": "Piemonte", "Type": 3.0, "Latitude": 44.701066, "Longitude": 7.892496, "cityName": "A" }, "geometry": { "type": "Point", "coordinates": [ 7.892496, 44.701066 ] } },
{ "type": "Feature", "properties": { "ID": "S00850", "Name": "GIUBIASCO", "RegionID": "", "Region": "N.D.", "Type": null, "Latitude": null, "Longitude": null, "cityName": null }, "geometry": null },
{ "type": "Feature", "properties": { "ID": "S00860", "Name": "BORGORATTO", "RegionID": "3", "Region": "Piemonte", "Type": 3.0, "Latitude": 44.835999, "Longitude": 8.538182, "cityName": "A" }, "geometry": { "type": "Point", "coordinates": [ 8.538182, 44.835999 ] } },
{ "type": "Feature", "properties": { "ID": "S00861", "Name": "GAMALERO", "RegionID": "3", "Region": "Piemonte", "Type": 3.0, "Latitude": 44.817476, "Longitude": 8.543427, "cityName": "A" }, "geometry": { "type": "Point", "coordinates": [ 8.543427, 44.817476 ] } },
{ "type": "Feature", "properties": { "ID": "S00864", "Name": "CASSINE", "RegionID": "3", "Region": "Piemonte", "Type": 3.0, "Latitude": 44.751513, "Longitude": 8.533613, "cityName": "A" }, "geometry": { "type": "Point", "coordinates": [ 8.533613, 44.751513 ] } },
{ "type": "Feature", "properties": { "ID": "S00866", "Name": "STREVI", "RegionID": "3", "Region": "Piemonte", "Type": 3.0, "Latitude": 44.697771, "Longitude": 8.525525, "cityName": "A" }, "geometry": { "type": "Point", "coordinates": [ 8.525525, 44.697771 ] } },
{ "type": "Feature", "properties": { "ID": "S00867", "Name": "ACQUI TERME", "RegionID": "3", "Region": "Piemonte", "Type": 3.0, "Latitude": 44.67407, "Longitude": 8.474482, "cityName": "Acqui" }, "geometry": { "type": "Point", "coordinates": [ 8.474482, 44.67407 ] } },
{ "type": "Feature", "properties": { "ID": "S00869", "Name": "TERZO MONTABONE", "RegionID": "3", "Region": "Piemonte", "Type": 3.0, "Latitude": 44.671932, "Longitude": 8.428705, "cityName": "A" }, "geometry": { "type": "Point", "coordinates": [ 8.428705, 44.671932 ] } },
{ "type": "Feature", "properties": { "ID": "S00870", "Name": "BISTAGNO", "RegionID": "3", "Region": "Piemonte", "Type": 3.0, "Latitude": 44.659256, "Longitude": 8.372057, "cityName": "A" }, "geometry": { "type": "Point", "coordinates": [ 8.372057, 44.659256 ] } },
{ "type": "Feature", "properties": { "ID": "S00871", "Name": "PONTI", "RegionID": "3", "Region": "Piemonte", "Type": 3.0, "Latitude": 44.629979, "Longitude": 8.365262, "cityName": "A" }, "geometry": { "type": "Point", "coordinates": [ 8.365262, 44.629979 ] } },
{ "type": "Feature", "properties": { "ID": "S00872", "Name": "MONTECHIARO DENICE", "RegionID": "3", "Region": "Piemonte", "Type": 3.0, "Latitude": 44.600827, "Longitude": 8.352185, "cityName": "A" }, "geometry": { "type": "Point", "coordinates": [ 8.352185, 44.600827 ] } },
{ "type": "Feature", "properties": { "ID": "S00873", "Name": "MOMBALDONE ROCCAVERANO", "RegionID": "3", "Region": "Piemonte", "Type": 3.0, "Latitude": 44.569891, "Longitude": 8.332781, "cityName": "A" }, "geometry": { "type": "Point", "coordinates": [ 8.332781, 44.569891 ] } },
{ "type": "Feature", "properties": { "ID": "S00874", "Name": "SPIGNO", "RegionID": "3", "Region": "Piemonte", "Type": 3.0, "Latitude": 44.539437, "Longitude": 8.317924, "cityName": "A" }, "geometry": { "type": "Point", "coordinates": [ 8.317924, 44.539437 ] } },
{ "type": "Feature", "properties": { "ID": "S00875", "Name": "MERANA", "RegionID": "3", "Region": "Piemonte", "Type": 3.0, "Latitude": 44.519368, "Longitude": 8.298327, "cityName": "A" }, "geometry": { "type": "Point", "coordinates": [ 8.298327, 44.519368 ] } },
{ "type": "Feature", "properties": { "ID": "S00876", "Name": "PIANA", "RegionID": "2", "Region": "Liguria", "Type": 3.0, "Latitude": 44.486383, "Longitude": 8.308796, "cityName": "A" }, "geometry": { "type": "Point", "coordinates": [ 8.308796, 44.486383 ] } },
{ "type": "Feature", "properties": { "ID": "S00877", "Name": "DEGO", "RegionID": "2", "Region": "Liguria", "Type": 3.0, "Latitude": 44.448003, "Longitude": 8.308469, "cityName": "A" }, "geometry": { "type": "Point", "coordinates": [ 8.308469, 44.448003 ] } },
{ "type": "Feature", "properties": { "ID": "S00878", "Name": "ROCCHETTA CAIRO", "RegionID": "2", "Region": "Liguria", "Type": 3.0, "Latitude": 44.427477, "Longitude": 8.295356, "cityName": "A" }, "geometry": { "type": "Point", "coordinates": [ 8.295356, 44.427477 ] } },
{ "type": "Feature", "properties": { "ID": "S00879", "Name": "CAIRO MONTENOTTE", "RegionID": "2", "Region": "Liguria", "Type": 3.0, "Latitude": 44.394747, "Longitude": 8.278786, "cityName": "A" }, "geometry": { "type": "Point", "coordinates": [ 8.278786, 44.394747 ] } },
{ "type": "Feature", "properties": { "ID": "S00880", "Name": "VOLPIANO", "RegionID": "", "Region": "N.D.", "Type": null, "Latitude": null, "Longitude": null, "cityName": null }, "geometry": null },
{ "type": "Feature", "properties": { "ID": "S00881", "Name": "S. BENIGNO", "RegionID": "", "Region": "N.D.", "Type": null, "Latitude": null, "Longitude": null, "cityName": null }, "geometry": null },
{ "type": "Feature", "properties": { "ID": "S00882", "Name": "BOSCONERO", "RegionID": "", "Region": "N.D.", "Type": null, "Latitude": null, "Longitude": null, "cityName": null }, "geometry": null },
{ "type": "Feature", "properties": { "ID": "S00883", "Name": "FELETTO", "RegionID": "", "Region": "N.D.", "Type": null, "Latitude": null, "Longitude": null, "cityName": null }, "geometry": null },
{ "type": "Feature", "properties": { "ID": "S00884", "Name": "RIVAROLO", "RegionID": "", "Region": "N.D.", "Type": null, "Latitude": null, "Longitude": null, "cityName": null }, "geometry": null },
{ "type": "Feature", "properties": { "ID": "S00885", "Name": "FAVRIA", "RegionID": "", "Region": "N.D.", "Type": null, "Latitude": null, "Longitude": null, "cityName": null }, "geometry": null },
{ "type": "Feature", "properties": { "ID": "S00886", "Name": "SALASSA", "RegionID": "", "Region": "N.D.", "Type": null, "Latitude": null, "Longitude": null, "cityName": null }, "geometry": null },
{ "type": "Feature", "properties": { "ID": "S00887", "Name": "VALPERGA", "RegionID": "", "Region": "N.D.", "Type": null, "Latitude": null, "Longitude": null, "cityName": null }, "geometry": null },
{ "type": "Feature", "properties": { "ID": "S00888", "Name": "COURGNE'", "RegionID": "", "Region": "N.D.", "Type": null, "Latitude": null, "Longitude": null, "cityName": null }, "geometry": null },
{ "type": "Feature", "properties": { "ID": "S00889", "Name": "CAMPORE", "RegionID": "", "Region": "N.D.", "Type": null, "Latitude": null, "Longitude": null, "cityName": null }, "geometry": null },
{ "type": "Feature", "properties": { "ID": "S00890", "Name": "PONT", "RegionID": "2", "Region": "Liguria", "Type": 3.0, "Latitude": 45.420436, "Longitude": 7.60442, "cityName": "A" }, "geometry": { "type": "Point", "coordinates": [ 7.60442, 45.420436 ] } },
{ "type": "Feature", "properties": { "ID": "S00901", "Name": "BEINETTE", "RegionID": "3", "Region": "Piemonte", "Type": 3.0, "Latitude": 44.36782, "Longitude": 7.644884, "cityName": "A" }, "geometry": { "type": "Point", "coordinates": [ 7.644884, 44.36782 ] } },
{ "type": "Feature", "properties": { "ID": "S00902", "Name": "MARGARITA", "RegionID": "3", "Region": "Piemonte", "Type": 3.0, "Latitude": 44.380082, "Longitude": 7.685738, "cityName": "A" }, "geometry": { "type": "Point", "coordinates": [ 7.685738, 44.380082 ] } },
{ "type": "Feature", "properties": { "ID": "S00903", "Name": "PIANFEI", "RegionID": "3", "Region": "Piemonte", "Type": 3.0, "Latitude": 44.385228, "Longitude": 7.717109, "cityName": "A" }, "geometry": { "type": "Point", "coordinates": [ 7.717109, 44.385228 ] } },
{ "type": "Feature", "properties": { "ID": "S00904", "Name": "POGLIOLA", "RegionID": "3", "Region": "Piemonte", "Type": 3.0, "Latitude": 44.399796, "Longitude": 7.75057, "cityName": "A" }, "geometry": { "type": "Point", "coordinates": [ 7.75057, 44.399796 ] } },
{ "type": "Feature", "properties": { "ID": "S00905", "Name": "ROCCADEBALDI", "RegionID": "3", "Region": "Piemonte", "Type": 3.0, "Latitude": 44.410446, "Longitude": 7.780449, "cityName": "A" }, "geometry": { "type": "Point", "coordinates": [ 7.780449, 44.410446 ] } },
{ "type": "Feature", "properties": { "ID": "S00908", "Name": "BASTIA MONDOVI`", "RegionID": "3", "Region": "Piemonte", "Type": 3.0, "Latitude": 44.439398, "Longitude": 7.891671, "cityName": "A" }, "geometry": { "type": "Point", "coordinates": [ 7.891671, 44.439398 ] } },
{ "type": "Feature", "properties": { "ID": "S00920", "Name": "NUCETTO", "RegionID": "3", "Region": "Piemonte", "Type": 3.0, "Latitude": 44.338871, "Longitude": 8.061386, "cityName": "A" }, "geometry": { "type": "Point", "coordinates": [ 8.061386, 44.338871 ] } },
{ "type": "Feature", "properties": { "ID": "S00921", "Name": "BAGNASCO", "RegionID": "3", "Region": "Piemonte", "Type": 3.0, "Latitude": 44.303264, "Longitude": 8.046132, "cityName": "A" }, "geometry": { "type": "Point", "coordinates": [ 8.046132, 44.303264 ] } },
{ "type": "Feature", "properties": { "ID": "S00922", "Name": "PIEVETTA", "RegionID": "3", "Region": "Piemonte", "Type": 3.0, "Latitude": 44.257449, "Longitude": 8.021744, "cityName": "A" }, "geometry": { "type": "Point", "coordinates": [ 8.021744, 44.257449 ] } },
{ "type": "Feature", "properties": { "ID": "S00923", "Name": "PRIOLA", "RegionID": "3", "Region": "Piemonte", "Type": 3.0, "Latitude": 44.248694, "Longitude": 8.023429, "cityName": "A" }, "geometry": { "type": "Point", "coordinates": [ 8.023429, 44.248694 ] } },
{ "type": "Feature", "properties": { "ID": "S00924", "Name": "GARESSIO", "RegionID": "3", "Region": "Piemonte", "Type": 3.0, "Latitude": 44.199088, "Longitude": 8.015214, "cityName": "A" }, "geometry": { "type": "Point", "coordinates": [ 8.015214, 44.199088 ] } },
{ "type": "Feature", "properties": { "ID": "S00925", "Name": "TRAPPA", "RegionID": "3", "Region": "Piemonte", "Type": 3.0, "Latitude": 44.185375, "Longitude": 7.994435, "cityName": "A" }, "geometry": { "type": "Point", "coordinates": [ 7.994435, 44.185375 ] } },
{ "type": "Feature", "properties": { "ID": "S00926", "Name": "ECA NASAGO`", "RegionID": "3", "Region": "Piemonte", "Type": 3.0, "Latitude": 44.160769, "Longitude": 7.965137, "cityName": "A" }, "geometry": { "type": "Point", "coordinates": [ 7.965137, 44.160769 ] } },
{ "type": "Feature", "properties": { "ID": "S00927", "Name": "ORMEA", "RegionID": "", "Region": "N.D.", "Type": null, "Latitude": null, "Longitude": null, "cityName": null }, "geometry": null },
{ "type": "Feature", "properties": { "ID": "S00950", "Name": "TRINITA` BENE VAGIENNA", "RegionID": "3", "Region": "Piemonte", "Type": 3.0, "Latitude": 44.504656, "Longitude": 7.752647, "cityName": "A" }, "geometry": { "type": "Point", "coordinates": [ 7.752647, 44.504656 ] } },
{ "type": "Feature", "properties": { "ID": "S00951", "Name": "MAGLIANO CRAVA MOROZZO", "RegionID": "3", "Region": "Piemonte", "Type": 3.0, "Latitude": 44.445259, "Longitude": 7.777852, "cityName": "A" }, "geometry": { "type": "Point", "coordinates": [ 7.777852, 44.445259 ] } },
{ "type": "Feature", "properties": { "ID": "S00952", "Name": "MONDOVI`", "RegionID": "3", "Region": "Piemonte", "Type": 3.0, "Latitude": 44.398255, "Longitude": 7.816339, "cityName": "Mondovi'" }, "geometry": { "type": "Point", "coordinates": [ 7.816339, 44.398255 ] } },
{ "type": "Feature", "properties": { "ID": "S00953", "Name": "VICOFORTE SAN MICHELE", "RegionID": "3", "Region": "Piemonte", "Type": 3.0, "Latitude": 44.37404, "Longitude": 7.894687, "cityName": "A" }, "geometry": { "type": "Point", "coordinates": [ 7.894687, 44.37404 ] } },
{ "type": "Feature", "properties": { "ID": "S00954", "Name": "LESEGNO", "RegionID": "3", "Region": "Piemonte", "Type": 3.0, "Latitude": 44.385891, "Longitude": 7.94266, "cityName": "A" }, "geometry": { "type": "Point", "coordinates": [ 7.94266, 44.385891 ] } },
{ "type": "Feature", "properties": { "ID": "S00970", "Name": "BIELLA CHIAVAZZA", "RegionID": "3", "Region": "Piemonte", "Type": 3.0, "Latitude": 45.568084, "Longitude": 8.066787, "cityName": "A" }, "geometry": { "type": "Point", "coordinates": [ 8.066787, 45.568084 ] } },
{ "type": "Feature", "properties": { "ID": "S00971", "Name": "CARPIGNANO SESIA", "RegionID": "3", "Region": "Piemonte", "Type": 3.0, "Latitude": 45.528934, "Longitude": 8.422898, "cityName": "A" }, "geometry": { "type": "Point", "coordinates": [ 8.422898, 45.528934 ] } },
{ "type": "Feature", "properties": { "ID": "S00972", "Name": "CASALEGGIO", "RegionID": "3", "Region": "Piemonte", "Type": 3.0, "Latitude": 45.491298, "Longitude": 8.490369, "cityName": "A" }, "geometry": { "type": "Point", "coordinates": [ 8.490369, 45.491298 ] } },
{ "type": "Feature", "properties": { "ID": "S00973", "Name": "COSSATO", "RegionID": "3", "Region": "Piemonte", "Type": 3.0, "Latitude": 45.564216, "Longitude": 8.175964, "cityName": "A" }, "geometry": { "type": "Point", "coordinates": [ 8.175964, 45.564216 ] } },
{ "type": "Feature", "properties": { "ID": "S00974", "Name": "GHISLARENGO", "RegionID": "3", "Region": "Piemonte", "Type": 3.0, "Latitude": 45.526006, "Longitude": 8.379453, "cityName": "A" }, "geometry": { "type": "Point", "coordinates": [ 8.379453, 45.526006 ] } },
{ "type": "Feature", "properties": { "ID": "S00976", "Name": "NIBBIA", "RegionID": "3", "Region": "Piemonte", "Type": 3.0, "Latitude": 45.481363, "Longitude": 8.557993, "cityName": "A" }, "geometry": { "type": "Point", "coordinates": [ 8.557993, 45.481363 ] } },
{ "type": "Feature", "properties": { "ID": "S00977", "Name": "VIGLIANO CANDELO", "RegionID": "3", "Region": "Piemonte", "Type": 3.0, "Latitude": 45.557517, "Longitude": 8.108475, "cityName": "A" }, "geometry": { "type": "Point", "coordinates": [ 8.108475, 45.557517 ] } },
{ "type": "Feature", "properties": { "ID": "S00978", "Name": "SILLAVENGO", "RegionID": "3", "Region": "Piemonte", "Type": 3.0, "Latitude": 45.521303, "Longitude": 8.444987, "cityName": "A" }, "geometry": { "type": "Point", "coordinates": [ 8.444987, 45.521303 ] } },
{ "type": "Feature", "properties": { "ID": "S00980", "Name": "DORMELLETTO PAESE", "RegionID": "3", "Region": "Piemonte", "Type": 3.0, "Latitude": 45.730032, "Longitude": 8.574324, "cityName": "A" }, "geometry": { "type": "Point", "coordinates": [ 8.574324, 45.730032 ] } },
{ "type": "Feature", "properties": { "ID": "S00981", "Name": "BORGO TICINO", "RegionID": "3", "Region": "Piemonte", "Type": 3.0, "Latitude": 45.691943, "Longitude": 8.602483, "cityName": "A" }, "geometry": { "type": "Point", "coordinates": [ 8.602483, 45.691943 ] } },
{ "type": "Feature", "properties": { "ID": "S00982", "Name": "VARALLO POMBIA", "RegionID": "3", "Region": "Piemonte", "Type": 3.0, "Latitude": 45.670032, "Longitude": 8.620047, "cityName": "A" }, "geometry": { "type": "Point", "coordinates": [ 8.620047, 45.670032 ] } },
{ "type": "Feature", "properties": { "ID": "S00983", "Name": "MARANO TICINO", "RegionID": "3", "Region": "Piemonte", "Type": 3.0, "Latitude": 45.629485, "Longitude": 8.626172, "cityName": "A" }, "geometry": { "type": "Point", "coordinates": [ 8.626172, 45.629485 ] } },
{ "type": "Feature", "properties": { "ID": "S00984", "Name": "OLEGGIO", "RegionID": "3", "Region": "Piemonte", "Type": 3.0, "Latitude": 45.598029, "Longitude": 8.632586, "cityName": "Oleggio" }, "geometry": { "type": "Point", "coordinates": [ 8.632586, 45.598029 ] } },
{ "type": "Feature", "properties": { "ID": "S00985", "Name": "BELLINZAGO", "RegionID": "3", "Region": "Piemonte", "Type": 3.0, "Latitude": 45.566681, "Longitude": 8.627652, "cityName": "A" }, "geometry": { "type": "Point", "coordinates": [ 8.627652, 45.566681 ] } },
{ "type": "Feature", "properties": { "ID": "S01000", "Name": "SEZANA", "RegionID": "", "Region": "N.D.", "Type": null, "Latitude": null, "Longitude": null, "cityName": null }, "geometry": null },
{ "type": "Feature", "properties": { "ID": "S01003", "Name": "DOMODOSSOLA", "RegionID": "3", "Region": "Piemonte", "Type": 2.0, "Latitude": 46.115429, "Longitude": 8.296684, "cityName": "Domodossola" }, "geometry": { "type": "Point", "coordinates": [ 8.296684, 46.115429 ] } },
{ "type": "Feature", "properties": { "ID": "S01006", "Name": "DARFO-CORNA", "RegionID": "", "Region": "N.D.", "Type": null, "Latitude": null, "Longitude": null, "cityName": null }, "geometry": null },
{ "type": "Feature", "properties": { "ID": "S01007", "Name": "BEURA CARDEZZA", "RegionID": "3", "Region": "Piemonte", "Type": 3.0, "Latitude": 46.068341, "Longitude": 8.289627, "cityName": "A" }, "geometry": { "type": "Point", "coordinates": [ 8.289627, 46.068341 ] } },
{ "type": "Feature", "properties": { "ID": "S01008", "Name": "VOGOGNA OSSOLA", "RegionID": "3", "Region": "Piemonte", "Type": 3.0, "Latitude": 46.005883, "Longitude": 8.294664, "cityName": "A" }, "geometry": { "type": "Point", "coordinates": [ 8.294664, 46.005883 ] } },
{ "type": "Feature", "properties": { "ID": "S01009", "Name": "PREMOSELLO CHIOVENDA", "RegionID": "3", "Region": "Piemonte", "Type": 3.0, "Latitude": 46.002188, "Longitude": 8.326649, "cityName": "Premosello" }, "geometry": { "type": "Point", "coordinates": [ 8.326649, 46.002188 ] } },
{ "type": "Feature", "properties": { "ID": "S01010", "Name": "CUZZAGO", "RegionID": "3", "Region": "Piemonte", "Type": 3.0, "Latitude": 45.993682, "Longitude": 8.373989, "cityName": "A" }, "geometry": { "type": "Point", "coordinates": [ 8.373989, 45.993682 ] } },
{ "type": "Feature", "properties": { "ID": "S01011", "Name": "CANDOGLIA ORNAVASSO", "RegionID": "3", "Region": "Piemonte", "Type": 3.0, "Latitude": 45.977489, "Longitude": 8.419715, "cityName": "A" },